courier_id,wave_index,tracking_id,weather_grade,pick_lng,pick_lat,deliver_lng,deliver_lat,create_time,confirm_time,assigned_time,promise_deliver_time,estimate_pick_time,aoi_id,shop_id
100002543,0,2100074536706869066,正常天气,121.647214,39.135549,121.655694,39.123121,1580484067,1580484067,1580519088,1580521500,1580485567,4424963369d15e8900db6cfe732700c3,02615f185581167cc68ba41af3d25ce6
100002543,0,2100074542836254538,正常天气,121.647214,39.135549,121.647324,39.126481,1580517517,1580517517,1580518968,1580521500,1580519017,a986694f4dd7e70ea73e2261889cde81,02615f185581167cc68ba41af3d25ce6
100002543,1,2100074546090674142,正常天气,121.629701,39.139352,121.658144,39.135721,1580523657,1580523658,1580523709,1580526417,1580524558,4df9946bb92f495035be19576fd2d828,374469acda40b1b0b5d34ab4a58cb194
100002543,1,2100074546118723550,正常天气,121.629701,39.139352,121.660584,39.130871,1580523868,1580523869,1580523889,1580526568,1580524589,1e774d8c07c353386658144a16dfd8c1,374469acda40b1b0b5d34ab4a58cb194
100002543,2,2100074572925863604,正常天气,121.642437,39.135199,121.656294,39.122061,1580549262,1580549263,1580549269,1580551902,1580550163,e4bc0664f82df5c8491cbb9f5bd4abb0,9265cec8aa44dceae0072716a3a7e58a
100002543,2,2100074571487053444,正常天气,121.644819,39.136675,121.651244,39.125261,1580549551,1580549552,1580549569,1580552011,1580550272,07a9f773fcfb2d5366822b903700b291,d69c2340d3e9112b75a3e0d0ba5fc21a
100002652,0,2100074545867785801,正常天气,121.559167,39.143862,121.540884,39.152671,1580523235,1580523236,1580523248,1580525875,1580524436,705acdfcbe3d54c3eb0b1e91218e8c50,9c1c3712a6b3df108815635ceab5556a
100002652,0,2100074546073371904,正常天气,121.564017,39.14282,121.551724,39.148541,1580523356,1580523358,1580523369,1580525696,1580524258,0bbab78d893fd9de32faac2d7a564591,22c2c3f5843b8b2b0a9f16ce4185079b
100002652,1,2100074548127335429,正常天气,121.572143,39.145727,121.566614,39.143101,1580526242,1580526245,1580526249,1580528222,1580527325,dbb422937d7ff56e049d61da730b3e11,fc8a44681cda5dd8575f46eab39d3725
100002652,1,2100074547916997637,正常天气,121.572143,39.145727,121.566714,39.143301,1580526647,1580526649,1580526669,1580528927,1580527549,dbb422937d7ff56e049d61da730b3e11,fc8a44681cda5dd8575f46eab39d3725
100002652,1,2100074551610738043,正常天气,121.568798,39.144677,121.579954,39.149211,1580527817,1580527818,1580527869,1580530157,1580528898,c48832bfaadb1499b75e8a5b48f795d1,b1e6923037be4798f97f2493bdeaad6b
100023698,0,2100074548748944821,正常天气,121.376732,39.135899,121.384464,39.138281,1580526234,1580526235,1580526285,1580528574,1580527135,812214fb8e7066bfa6e32c626c2c688b,478c81b3545dbcb16aa5bfaba7a04ae1
100023698,0,2100074549615199669,正常天气,121.376732,39.135899,121.395434,39.141091,1580526289,1580526290,1580526346,1580528869,1580527190,d09b9bb192e03903963e35b40e3f0399,478c81b3545dbcb16aa5bfaba7a04ae1
100023698,1,2100074571939185737,正常天气,121.374729,39.135643,121.376224,39.129531,1580548610,1580548612,1580548665,1580550890,1580549452,32a4f2eaa67b8e04fc005c8da167e53e,df524bf0652ade63387ef136b19758d4
100023698,1,2100074571661936381,正常天气,121.373836,39.135808,121.376704,39.128931,1580549134,1580549134,1580549145,1580553214,1580551834,32a4f2eaa67b8e04fc005c8da167e53e,cac71f95ad4c2a99b909790a0853c65a
100023698,2,2100074578265998361,正常天气,121.374011,39.135793,121.366404,39.123731,1580555672,1580555672,1580555684,1580557832,1580556392,3b41228e4b0c50af48a0abe20a3df3ef,af62ecc30266ad244ea54e3af929539b
100023698,2,2100074577411311013,正常天气,121.373504,39.135871,121.361174,39.139511,1580555686,1580555689,1580555744,1580557486,1580556229,1844cb70ea8ceb6f2fd0311499244aa8,f6f667fc164958c4f22e25e2ed011339
100038207,0,2100074553774409086,正常天气,121.426621,39.198751,121.435844,39.197241,1580530951,1580530952,1580530973,1580534791,1580531612,fc82cb7059c0bda03b6fc9f88f9a0921,89ac4b55a9905bba942b02d7499366dd
100038207,0,2100074552475944318,正常天气,121.426621,39.198751,121.437454,39.196471,1580531054,1580531055,1580531093,1580533334,1580531955,fc82cb7059c0bda03b6fc9f88f9a0921,89ac4b55a9905bba942b02d7499366dd
100038207,1,2100074569557902718,正常天气,121.426621,39.198751,121.419054,39.207201,1580548107,1580548108,1580548133,1580550507,1580549008,416002d445a04ec6afb691115707c38a,89ac4b55a9905bba942b02d7499366dd
100038207,1,2100074572331156566,正常天气,121.427445,39.197775,121.411824,39.214871,1580549164,1580549167,1580549453,1580551924,1580550247,c63857bf625fb19d99dd8c6ecc4cec3d,694eee0b80e2f45a4e90e3f82ddfb47e
100069773,0,2100074542185776618,正常天气,121.552289,39.172781,121.529364,39.192291,1580516347,1580516348,1580516393,1580519827,1580517428,3ab7b41810390894809c7eaad0e1fbc7,9cb6852ecd5faa7bdccb3ec307ef7c40
100069773,0,2100074541897122886,正常天气,121.546017,39.176396,121.541584,39.187011,1580516912,1580516913,1580516933,1580519012,1580517633,436194f369a725feb9882e2f1bcf3fd3,11d7f95ad50144a6d8d94587841384f3
100069773,1,2100074542360102378,正常天气,121.552289,39.172781,121.552114,39.174851,1580520052,1580520052,1580521374,1580523300,1580521552,f46a399b7d4ae4925a2706d70d470b26,9cb6852ecd5faa7bdccb3ec307ef7c40
100069773,1,2100074544499262531,正常天气,121.553116,39.17438,121.543854,39.170061,1580520661,1580520661,1580520714,1580522941,1580521561,117b2febf1e50ac06981eeffee7c03d5,36dcfa9580af19192ad04f758614b2de
100069773,3,2100074551350527601,正常天气,121.55254,39.179307,121.545534,39.179401,1580528562,1580528589,1580528634,1580530422,1580529189,250b164d84ea39a488422da8500786e6,1d288fc42d625910bf29a48018cd50a7
100069773,3,2100074552876500038,正常天气,121.546017,39.176396,121.557764,39.174551,1580529081,1580529082,1580529114,1580530941,1580529802,631e9c01c190fc1515b9fe3865abbb15,11d7f95ad50144a6d8d94587841384f3
100069773,3,2100074549915878583,正常天气,121.548697,39.185209,121.561364,39.167931,1580529117,1580529117,1580529175,1580532117,1580530017,63cc2f68b9c1b13715fe2c690baeac57,cad32ec2c48e29e1aa30ee36b6c4239e
100069773,3,2100074554603865535,正常天气,121.558366,39.173663,121.569334,39.171731,1580530936,1580530938,1580530974,1580533456,1580531778,48ee039537532a1033e9658d55b35273,a7bb441e5e16e96464259d8549926b29
100069773,3,2100074553787352249,正常天气,121.558245,39.173984,121.563384,39.177071,1580531104,1580531107,1580531154,1580533444,1580532187,5a894f50244536776452559bd357bd13,f776e79bfef1e964eb2022fb0b11aba0
100069773,3,2100074554769212601,正常天气,121.558245,39.173984,121.580614,39.162711,1580532548,1580532550,1580532594,1580535608,1580533630,8cb4b2d22536caa60f5b7baa02b3f4d3,f776e79bfef1e964eb2022fb0b11aba0
100069773,5,2100074579542771636,正常天气,121.553404,39.172511,121.570324,39.184171,1580556562,1580556565,1580556594,1580558722,1580557285,b311631932de7e6142f1c427ed1669ae,171ac65cbfa42d301caf0137fb92b0aa
100069773,5,2100074579285313137,正常天气,121.55254,39.179307,121.570414,39.183541,1580556604,1580556621,1580556654,1580558704,1580557521,69d944eb3441089459821320a0dc23fb,1d288fc42d625910bf29a48018cd50a7
100069773,6,2100074579639764153,正常天气,121.558245,39.173984,121.547994,39.182751,1580557945,1580557947,1580557974,1580560405,1580558967,bd7db7397f7d83052f829816ecc7f004,f776e79bfef1e964eb2022fb0b11aba0
100069773,6,2100074579377554761,正常天气,121.558576,39.174316,121.558504,39.175541,1580558265,1580558271,1580558274,1580560065,1580558931,f7a3f4ba8d698636cfbaea40a49802f0,392b25cc0c47699aa760823d52648698
100069773,6,2100074581465302647,正常天气,121.548679,39.186951,121.559564,39.175611,1580559032,1580559038,1580559114,1580561312,1580560118,7683d3f445d3e048fa913c8f94a654ed,8ef328bdfe47722a5d6c0d6033848ad7
100069773,7,2100074581731968420,正常天气,121.560229,39.177853,121.551544,39.178031,1580558509,1580558509,1580560854,1580562900,1580560009,8f19793b2671094e63a15ab883d50137,0f7f9f2fb2a5accd921eecf5325cbbab
100069773,7,2100074581184775588,正常天气,121.560229,39.177853,121.525464,39.180841,1580560455,1580560456,1580560494,1580563215,1580561176,e1d143004868fc61f42f424a0348f74d,0f7f9f2fb2a5accd921eecf5325cbbab
100069773,8,2100074582000666590,正常天气,121.563324,39.176174,121.536834,39.179141,1580566821,1580566822,1580566853,1580569101,1580567542,8f5544ed02306c0641169ff833050377,6feaaa22fc13200a05a7a03b9402f39d
100069773,8,2100074582977218462,正常天气,121.551971,39.179954,121.547274,39.181131,1580567620,1580567623,1580567813,1580570020,1580568883,bd7db7397f7d83052f829816ecc7f004,7bc8a0b3c55d3ba0b2a44baf3ac55354
100069773,8,2100074584476288926,正常天气,121.551971,39.179954,121.576784,39.172421,1580568197,1580568203,1580568593,1580571197,1580569283,ec8d3538be4ee50e41533a00c026974b,7bc8a0b3c55d3ba0b2a44baf3ac55354
100076651,1,2100074549941994927,正常天气,121.431559,39.189878,121.421644,39.182421,1580526636,1580526636,1580526694,1580528916,1580527236,456875dae153a5275f3022e5a1fd55a6,dc0b4bdc5c730714d63540742a8150b7
100076651,1,2100074550287763349,正常天气,121.421354,39.184668,121.414624,39.185641,1580527230,1580527231,1580527234,1580529270,1580528131,2188a1da2ac0229a7f979193658f1b5a,c810399e7f49d260ebd208f8811461a4
100076651,1,2100074550400976312,正常天气,121.409706,39.18548,121.401784,39.178031,1580528368,1580528373,1580528434,1580531008,1580528853,58026126513cf31a7df8d0eaa8ee53be,f5fb0605a343558f7b61689ed7ca5b83
100076651,2,2100074553624561200,正常天气,121.408435,39.190767,121.411704,39.169261,1580529239,1580529840,1580529874,1580532899,1580531280,7eaca0ebb8bc1694dd805801a975eea4,d3b31da76ce54a6903ccc2b3de7ea0d0
100076651,2,2100074552931484788,正常天气,121.408419,39.190927,121.411754,39.185881,1580529919,1580529920,1580529934,1580532079,1580531000,159c6eb64efcba9ca2b74e95b3a24240,1bc08a440a948c3cd9820fcbbe752804
100076651,3,2100074554449135318,正常天气,121.407815,39.191258,121.415964,39.191671,1580532882,1580532888,1580532934,1580534742,1580533968,e4a56818e5265933554809a174fec00a,24fb99844f18ed1c64c47b13e512d8ef
100076651,3,2100074557581493962,正常天气,121.407992,39.190503,121.417124,39.192871,1580534470,1580534471,1580534493,1580536510,1580535371,01795e3919026eaef2bfc225e19c65ce,9658b92c0480dda94b1125e2b25a6966
100076651,4,2100074552784717231,正常天气,121.431559,39.189878,121.404544,39.188141,1580530068,1580530069,1580537239,1580539500,1580531569,193eeaefedc89bda1246c4f578222c2d,dc0b4bdc5c730714d63540742a8150b7
100076651,4,2100074561396770334,正常天气,121.408154,39.191071,121.435664,39.187161,1580536594,1580536595,1580536653,1580539474,1580537495,e7f646a1a44a50a0da28b0f5d201c0dd,82c7274b60d083f5b8a1a9f1d35656c0
100076651,4,2100074561081542123,正常天气,121.408381,39.190885,121.415414,39.191671,1580536688,1580536689,1580536713,1580538668,1580537589,e4a56818e5265933554809a174fec00a,ba4fe99b92f3846dd5113fc0c08113a7
100076651,5,2100074563667920264,正常天气,121.408396,39.190114,121.418534,39.199221,1580541928,1580541929,1580541933,1580545948,1580543369,3a30be93eb45566a90f4e95ee72a089a,472b589f0b4a0a35eab06c01bfd2b90b
100076651,5,2100074565692556986,正常天气,121.408534,39.191241,121.415364,39.193321,1580542399,1580542412,1580542414,1580544499,1580543132,39e3f231e82983f629c42d1797ca9ec3,3892ef684a47497a83566344a790dd71
100076651,5,2100074566796937063,正常天气,121.40793,39.190661,121.441484,39.200831,1580544330,1580544452,1580544454,1580547390,1580545230,77932c555c708b2da551d853c4534b5b,b107643701e1e5e486c2b511fa8589ab
100076651,6,2100074567791183568,正常天气,121.408413,39.191178,121.426394,39.194391,1580546113,1580546114,1580546134,1580548633,1580546834,3a1430eddb8c25ca94fba2de9f4cb163,024b2213ff7261b832e7d5bb0b228fcd
100076651,6,2100074567507675041,正常天气,121.408351,39.190756,121.420224,39.199301,1580546173,1580546237,1580546253,1580548633,1580546957,1bd847ba37e71900a04a3de560eea274,0a4ff818a4814d444a3da52206991cde
100076651,6,2100074568487602081,正常天气,121.408351,39.190756,121.433544,39.198391,1580546703,1580546705,1580546733,1580549703,1580547425,ceb833cbc57b806a7444f800f70d3a10,0a4ff818a4814d444a3da52206991cde
100076651,7,2100074569535195050,正常天气,121.408094,39.190729,121.425284,39.180261,1580547820,1580547823,1580548054,1580551240,1580549263,b93c42dfd88403430211527eafd7e2ed,8c8e73216f0f0c85c2789c56c6ae7eb8
100076651,7,2100074570223355798,正常天气,121.414902,39.187186,121.431644,39.184281,1580548392,1580548393,1580548414,1580551092,1580549113,8817ba88be7a122fe7994e2e6aa2ac07,eab57f1765d01e903aa78c05de0cf1b1
100076651,7,2100074572263622123,正常天气,121.408381,39.190885,121.415304,39.190131,1580548773,1580548774,1580548834,1580551113,1580549494,19271b1628fda2248bf1a550fb159a83,ba4fe99b92f3846dd5113fc0c08113a7
10007871,0,2100074548854622111,正常天气,121.632547,39.141946,121.626144,39.140281,1580526951,1580526961,1580526975,1580529591,1580528221,81141ae62972bc11642cde98fd667df0,944b7864d46e8a1aece1319212c9ae88
10007871,0,2100074550065333539,正常天气,121.631219,39.141811,121.632084,39.146201,1580527756,1580527759,1580527814,1580530276,1580529019,b71df7214347524a0f5f0c79dfdf2f4e,88ac051764fe348382e6529948de8015
10007871,0,2100074550779577850,正常天气,121.631574,39.142231,121.635154,39.143561,1580528316,1580528319,1580528354,1580530236,1580529399,753c1911e8a294c5db901f8555faff0c,92ec52685bd511da262ee6f7a0adaa87
10007871,1,2100074553896437081,正常天气,121.631984,39.142532,121.624184,39.143921,1580529828,1580529831,1580529854,1580532048,1580530611,466d64b7a099bd6fd7bf7eebe8ad230c,c9746a9698f3e965d046a8b01a8c0c80
10007871,1,2100074554932692192,正常天气,121.626641,39.15032,121.636904,39.142721,1580530967,1580531092,1580531114,1580533667,1580532112,753c1911e8a294c5db901f8555faff0c,f3bb2a8b892c09522d83ffc2c304d0d8
10007871,1,2100074554118800474,正常天气,121.636701,39.141801,121.625424,39.147491,1580531618,1580531619,1580531654,1580533598,1580532339,0d109cc0999fa3a108c67cb748b1931f,1af41a72adbdb2abd7a2dab03e357bcf
10007871,1,2100074555638285402,正常天气,121.636701,39.141801,121.632134,39.142341,1580531663,1580531664,1580531715,1580533463,1580532384,898aef0932f6aaecda27aba8e9903991,1af41a72adbdb2abd7a2dab03e357bcf
10007871,2,2100074558214178419,正常天气,121.632454,39.14279,121.625644,39.152101,1580534355,1580534357,1580534414,1580537055,1580535617,bf49288eb197bc6b44fa0573acf8c74d,a02d5a7c7e7748bbc11e910ec0279989
10007871,2,2100074557959243707,正常天气,121.628392,39.151381,121.626454,39.166491,1580535207,1580535208,1580535314,1580537908,1580535928,d6aa83dd2eb57b948c7ae8315ee8b381,3e19a441a78e7d055464bf913d69082a
10007871,2,2100074557123134909,正常天气,121.624545,39.169412,121.621204,39.176881,1580535513,1580535514,1580536033,1580537793,1580536954,51ae01270114b24c78d7f0ae5cd11974,4206e38996fae4028a26d43b24f68d32
10007871,3,2100074564374693829,正常天气,121.629187,39.143572,121.637064,39.128301,1580540690,1580540691,1580540714,1580543210,1580541411,3c8c1c1ce394f0ce68e46e51842f7ea2,28969f2354e2bc0004e22217278efd5d
10007871,3,2100074564702438488,正常天气,121.633324,39.142031,121.637194,39.128051,1580541230,1580541236,1580541254,1580543990,1580542496,3c8c1c1ce394f0ce68e46e51842f7ea2,596270add8b23ebc597496570cdffe5d
10007871,4,2100074567949419959,正常天气,121.632666,39.141438,121.641784,39.140631,1580544174,1580544180,1580544194,1580546454,1580544900,8a60c22433f44cb0145ab50ee4febc42,a4080313741eb117d235bd3db5af418b
10007871,4,2100074565847746545,正常天气,121.631641,39.141797,121.643204,39.136801,1580544315,1580544315,1580544374,1580546715,1580545095,90e4d000d2c75459e2605ece27ec3ab7,ee5bfba8796b6beeed3329da7fb917a7
10007871,5,2100074569628321059,正常天气,121.631219,39.141811,121.631984,39.126941,1580546839,1580546850,1580546894,1580549719,1580548110,300803e51bf09739a016d77a8fc129f9,88ac051764fe348382e6529948de8015
10007871,5,2100074569076803304,正常天气,121.63071,39.143796,121.623284,39.126961,1580547096,1580547097,1580547134,1580550456,1580548177,4cafbabde0a7fcaaf012155c2104db50,8d792b135df8612423dc24ab2a3d3a82
10007871,6,2100074572379653210,正常天气,121.636701,39.141801,121.625764,39.126521,1580549448,1580549449,1580549475,1580552268,1580550169,3e8ab7fe637f0893e95a51b6454d3226,1af41a72adbdb2abd7a2dab03e357bcf
10007871,6,2100074572383159324,正常天气,121.632189,39.141811,121.628694,39.128631,1580549463,1580549464,1580549474,1580552643,1580550364,62653b44f060ce1b250dbb307d06ac24,e0b4245321d140d512d4cb51bf3f9537
10007871,6,2100074571697128538,正常天气,121.636701,39.141801,121.624324,39.127481,1580549736,1580549737,1580549774,1580552976,1580550337,ba01b30728104f9d8deb11dec011bc96,1af41a72adbdb2abd7a2dab03e357bcf
100084429,1,2100074536952137670,正常天气,121.282194,38.940251,121.290724,38.961201,1580482423,1580482424,1580533614,1580535900,1580483924,c289a79ab2ce11cd045262e0c89fcba9,c10651bb7fb46e14ed0641f32c10ac49
100084429,1,2100074553027135357,正常天气,121.283109,38.940121,121.294904,38.949801,1580531061,1580531062,1580531094,1580532861,1580531782,7decf0f7198de7eb3aaba586fba2e1c2,32bbf2e53bc4b885dc3be45e322acb8f
100084429,1,2100074555910555297,正常天气,121.294918,38.949215,121.282924,38.939431,1580531736,1580531747,1580531755,1580534376,1580533007,8e2704cb6d07302696bd710b7f526f99,6df96ed84f9f27e957f6b9f2758db7d8
100084429,1,2100074557522150948,正常天气,121.28295,38.9402,121.290724,38.961201,1580533734,1580533734,1580533794,1580536494,1580534634,e64eb7ddd3580a49e9b4437b2b40a6bb,b512111233651885ea8f35735f285e04
100084429,2,2100074563141862634,正常天气,121.25205,38.952624,121.265414,38.940551,1580540493,1580540501,1580540514,1580542593,1580541401,923cb82b26dc5d13770a546cba0df268,1de0dd0b3a6475620eef949fe7a42eeb
100084429,2,2100074563223619213,正常天气,121.269489,38.940504,121.294654,38.936191,1580541173,1580541175,1580541234,1580543813,1580542255,0795b3abd6356aa7c442defe08928659,43c59153b4fed4f8f7c1c08e901654c0
100084429,3,2100074563117319227,正常天气,121.295066,38.949105,121.293374,38.957641,1580539988,1580540011,1580546034,1580548500,1580541511,1d77095f55897b57544c654aa3d8e7ff,2e2d5dcdc14cd3e0cd057b82f3f8e42b
100084429,3,2100074567269615387,正常天气,121.29544,38.960338,121.300724,38.959321,1580546979,1580546981,1580546994,1580549259,1580546981,31a5ee0c087b34affd36fcccc64f931f,818436768632b00bf513187bdfc6f188
100084429,3,2100074569694315607,正常天气,121.304782,38.956486,121.303884,38.956731,1580547601,1580547602,1580547655,1580550182,1580548742,40d01a4d0b41ab859ca010a983f8cd04,bbf6121b778204253f9cf3ac47e7d91b
100084429,4,2100074570707175038,正常天气,121.302445,38.953496,121.282734,38.940071,1580548720,1580548725,1580548734,1580553040,1580552325,8e2704cb6d07302696bd710b7f526f99,43afa9aadf17fa0bef379fa1c7f95b4f
100084429,4,2100074571540858404,正常天气,121.28295,38.9402,121.294294,38.949061,1580549860,1580549860,1580549874,1580552440,1580550580,7decf0f7198de7eb3aaba586fba2e1c2,b512111233651885ea8f35735f285e04
100084429,5,2100074580225295512,正常天气,121.261441,38.953727,121.284734,38.940001,1580558542,1580558561,1580558574,1580561302,1580559461,8e2704cb6d07302696bd710b7f526f99,f8752e261e1ea66da393118ae95d7784
100084429,5,2100074580024591938,正常天气,121.283514,38.939945,121.300724,38.955501,1580558860,1580559168,1580559234,1580561740,1580560120,e373f7f7579fc86abd6e13de04a00df7,02c0fb50971c2b810569da3016c8f732
100084429,5,2100074581493449900,正常天气,121.285046,38.94015,121.306374,38.952581,1580559516,1580559517,1580559534,1580563056,1580560417,480c47963b717e2d319d05814ac2bd50,98122f432b0549ff457e85ee59e34496
10012191,0,2100074550191588813,正常天气,121.537556,39.192019,121.556504,39.191031,1580528163,1580528752,1580528810,1580532483,1580531452,fa7518562603d5c4a7ad69e2e5726f5f,214ab2fefcf6727b55cc55874d4f746a
10012191,0,2100074551150642766,正常天气,121.538302,39.188448,121.567474,39.189071,1580529157,1580529160,1580529170,1580532997,1580530360,ed7de0de5ad6b39f0f102b77b5b05ad1,fd5cd7448dd75dcde9b0a1e355febc6c
10012191,1,2100074560797836983,正常天气,121.53638,39.198548,121.541874,39.183491,1580537534,1580537537,1580537569,1580539994,1580538497,030df03d222d3040d00dd576d15d9847,c275f3962acdb518bdc21370ec3db212
10012191,1,2100074560569706185,正常天气,121.533824,39.206188,121.544234,39.202091,1580537678,1580537679,1580537689,1580540018,1580538579,a6b4e84b85a0f916af1878a663adcc44,98977d4d52e6ae02073ecef8200aafbe
10012191,2,2100074568829765578,正常天气,121.52715,39.201379,121.539274,39.217181,1580547480,1580547481,1580547529,1580550420,1580548741,afab3e9707435d6b0888b566d7ad3ff8,2e2ef01e69c856b82affc8fb1335ff70
10012191,2,2100074570636002804,正常天气,121.529656,39.204542,121.537664,39.211441,1580547912,1580547913,1580547949,1580549892,1580548993,5e5b3a2059db7ae7670f30166cf58c9e,c92b63db0e976ed9eeeef3e7608e59db
10012191,3,2100074570880615838,正常天气,121.537486,39.203102,121.552694,39.204741,1580549933,1580549934,1580549989,1580552033,1580550534,a6b4e84b85a0f916af1878a663adcc44,35d229edbb49a465c269fb236dc373d6
10012191,3,2100074573902742939,正常天气,121.549792,39.204616,121.549904,39.187921,1580550126,1580550429,1580550469,1580553066,1580551386,a85519c47f4e14b0ac770dce486ea82c,9a8a95ec00f264f122617cf4cfc0d53e
10012191,3,2100074574194509211,正常天气,121.549792,39.204616,121.543044,39.177641,1580550274,1580550579,1580550589,1580554234,1580551714,dc855395f763eb70aea6a33b87a1e268,9a8a95ec00f264f122617cf4cfc0d53e
10012191,4,2100074575266317336,正常天气,121.546244,39.201121,121.532284,39.192661,1580551707,1580551708,1580551730,1580554407,1580552428,e611607c5c8ad6d2c368affa1be32941,fa39e3bb4def8b7ee13ce4dd27180fa5
10012191,4,2100074577204381262,正常天气,121.538302,39.188448,121.538894,39.213681,1580553741,1580553744,1580553769,1580557101,1580555184,57d862fddad404d8157ed8bb21ae59e6,fd5cd7448dd75dcde9b0a1e355febc6c
10012191,5,2100074581813331160,正常天气,121.521408,39.198805,121.529154,39.201431,1580560227,1580560228,1580560249,1580562147,1580561308,3cc108fa814eef03ab3545bfc4cab172,a37ce21127862fcec5b411d0c5321ed1
10012191,5,2100074581610759586,正常天气,121.524069,39.201243,121.522544,39.204521,1580560967,1580560969,1580561029,1580563607,1580562769,1ea1035ebf63f0a14bf20bf391dbf623,d107f9da1c66ed0ee9bcc2ce6d1c0694
10012191,5,2100074581283047353,正常天气,121.533847,39.205862,121.545674,39.213981,1580562202,1580562217,1580562228,1580564062,1580562937,c00e33c0e638ef60dbd0e4e46c53ce4a,4f51a6a4846bdc4bcb4c3c25d6f998aa
100122337,0,2100074575931835791,正常天气,121.593345,39.204453,121.568894,39.210311,1580552508,1580552511,1580552525,1580555568,1580553531,9c00300f5c8776542c9370708d354dc2,08d351b91b1079d7bbe20fcfd2cfb781
100122337,0,2100074573490161447,正常天气,121.583434,39.209721,121.571224,39.211051,1580552595,1580552596,1580552645,1580555115,1580553616,8c262f2a1c73ada30f6221bf03dee886,aab87237821c3a9cd511e1ff571bf193
10012508,0,2100074547440583929,正常天气,121.549375,39.291975,121.550064,39.281001,1580525191,1580525191,1580525224,1580527771,1580526271,ad4cc1fb9b068faecfb70914acc63395,238772ec58585ce4291369e897adafca
10012508,0,2100074547740312825,正常天气,121.549375,39.291975,121.552574,39.283291,1580525314,1580525314,1580525344,1580527834,1580526394,ad4cc1fb9b068faecfb70914acc63395,238772ec58585ce4291369e897adafca
10012508,0,2100074552000021707,正常天气,121.548452,39.290979,121.535374,39.294661,1580527854,1580528455,1580528464,1580531034,1580529654,bda27fb38522cf5acf22a470f846fb97,beeb42855178a802b7831a9a5af0733a
10012508,1,2100074571350279371,正常天气,121.548452,39.290979,121.537434,39.287551,1580548021,1580548622,1580548624,1580551561,1580550001,9b8696235e0291040233a8f132d1416e,beeb42855178a802b7831a9a5af0733a
10012508,1,2100074572153259211,正常天气,121.548452,39.290979,121.537054,39.287521,1580549724,1580550325,1580550364,1580552784,1580551524,9b8696235e0291040233a8f132d1416e,beeb42855178a802b7831a9a5af0733a
100134611,0,2100074545806215159,正常天气,121.362149,39.291649,121.366974,39.284061,1580522847,1580522847,1580522893,1580524827,1580523927,ec6b23bdaad64cb0fd9dbed99763ce51,3657bc0c499d3328bf0253bd46d1b29f
100134611,0,2100074546335746039,正常天气,121.362149,39.291649,121.358904,39.280751,1580522929,1580522930,1580522953,1580525209,1580524010,4a5cf89256dc6bf7887fbbb20e8d6dea,3657bc0c499d3328bf0253bd46d1b29f
100134611,1,2100074554531121143,正常天气,121.362149,39.291649,121.355164,39.300451,1580530307,1580530307,1580530333,1580532407,1580530907,3cd656c098e6f1a1ff517a5cf70d24e9,3657bc0c499d3328bf0253bd46d1b29f
100134611,1,2100074552208001015,正常天气,121.362149,39.291649,121.352324,39.300811,1580530349,1580530350,1580530393,1580532389,1580531070,f13a5caaded7d0951bd4d0848a668eb3,3657bc0c499d3328bf0253bd46d1b29f
100134611,1,2100074553966528503,正常天气,121.362149,39.291649,121.361054,39.292741,1580530572,1580530572,1580530633,1580532432,1580531172,47522f7965d171a317b4838879f148db,3657bc0c499d3328bf0253bd46d1b29f
100134611,1,2100074556180989539,正常天气,121.356383,39.290137,121.349054,39.301891,1580531427,1580531976,1580532013,1580534007,1580532687,9c7ac211d14ea4849541a4098dccf251,d620b8a499607de1d03da0716970f1be
100134611,1,2100074554143672311,正常天气,121.362149,39.291649,121.348214,39.304341,1580531847,1580531847,1580531893,1580534007,1580532927,6509cbf63fac3a0f6a0aa5bd221c7ec8,3657bc0c499d3328bf0253bd46d1b29f
100134611,2,2100074563990586889,正常天气,121.374898,39.303465,121.348084,39.305701,1580543186,1580543189,1580543233,1580545466,1580543909,d01efc08436be720103d9fb5289772e7,abcb290b5b6e83ccf5384ceced8f77e6
100134611,2,2100074565239146487,正常天气,121.362149,39.291649,121.369704,39.284621,1580543715,1580543716,1580543773,1580545515,1580544436,5772ab3fcd9069a45e3fd5c96cf95a3b,3657bc0c499d3328bf0253bd46d1b29f
100134611,2,2100074566182471671,正常天气,121.362149,39.291649,121.370114,39.271531,1580544637,1580544637,1580544793,1580547157,1580545537,0bd426bf3afd08fd20762959742a9fb3,3657bc0c499d3328bf0253bd46d1b29f
100134611,3,2100074569888302601,正常天气,121.374898,39.303465,121.357834,39.293721,1580549612,1580549618,1580549653,1580551772,1580550338,c8e3a9d2bd4ba7500f058258a301bd51,abcb290b5b6e83ccf5384ceced8f77e6
100134611,3,2100074572714870775,正常天气,121.362149,39.291649,121.348084,39.301041,1580549871,1580549872,1580549893,1580552151,1580550952,9c7ac211d14ea4849541a4098dccf251,3657bc0c499d3328bf0253bd46d1b29f
100134611,3,2100074572095981559,正常天气,121.362149,39.291649,121.354074,39.300711,1580550024,1580550025,1580550073,1580551944,1580551105,3cd656c098e6f1a1ff517a5cf70d24e9,3657bc0c499d3328bf0253bd46d1b29f
100134611,3,2100074573686802216,正常天气,121.333738,39.292583,121.334674,39.293211,1580551085,1580551103,1580552053,1580554025,1580551869,312d3ecc5b17974b653f29d23ef8793d,43bbd05f6fa0999b43310738f47363c1
100166169,2,2100074560236881494,正常天气,121.567466,39.152346,121.562104,39.152591,1580536923,1580536924,1580536934,1580539263,1580538004,f2d3bfad8628644447b84404d311adbf,9495e4a5ec69c0273e8d9c09dcad5f56
100166169,2,2100074561516111007,正常天气,121.558704,39.154116,121.568764,39.167181,1580537856,1580537859,1580537894,1580540736,1580539119,9da55c7bf83eefdc0d1504b69037f833,779f73940278e19e62d88732fa9241bc
100166169,2,2100074562379973926,正常天气,121.567171,39.154457,121.568764,39.167181,1580537992,1580537994,1580538014,1580540452,1580539254,9da55c7bf83eefdc0d1504b69037f833,e0b7b00f4116caba08a1bbb611eb2bec
100166169,2,2100074562233960151,正常天气,121.568923,39.171005,121.579974,39.163251,1580539341,1580539346,1580539394,1580542101,1580540486,ead6ad4b3222fff6bdb089721ed9e6a2,8e5fa18d56aaa32a82054e8e1433b160
100166169,3,2100074566118704131,正常天气,121.562384,39.153991,121.562794,39.159631,1580543550,1580543590,1580543594,1580545470,1580544490,c372319cf5455f7ac40f7c3a9a7fd781,fc6fba7f90e7741aacebfc708fee1fcd
100166169,3,2100074565602149379,正常天气,121.562384,39.153991,121.556024,39.155061,1580543561,1580543596,1580543654,1580545601,1580544676,81a2a7f70e9d56e8d3b2a5a027d52766,fc6fba7f90e7741aacebfc708fee1fcd
100166169,3,2100074566448252551,正常天气,121.558242,39.158033,121.561224,39.158481,1580544767,1580544773,1580544794,1580546867,1580545853,8a057268a74a5f1201285aa667585e15,68c53ffad29c5ae761a33cb8b518f1e6
100166169,4,2100074568898905810,正常天气,121.557322,39.153776,121.560934,39.157371,1580548059,1580548073,1580548095,1580549979,1580548793,3d36e02ada0a64c08b566a39afb6a963,22e1e0e15b3aa6fcb7d4ff519cf141ec
100166169,4,2100074569204958746,正常天气,121.562826,39.153913,121.562394,39.154761,1580548074,1580548076,1580548094,1580550054,1580549156,2205947dc5a5664ebeeefcea1268186d,5d5b79ca15c962e9c085939015729e50
100166169,4,2100074571969824441,正常天气,121.566684,39.15227,121.566574,39.143731,1580548936,1580548937,1580548994,1580550736,1580549477,dbb422937d7ff56e049d61da730b3e11,b4b540e772f9bcfe98f4b5f1a6b32b54
100166169,5,2100074571541218581,正常天气,121.567864,39.152431,121.534854,39.172601,1580549861,1580549862,1580549895,1580553761,1580550882,d337dce23eb4f7c9989c9d3dfbcc114b,dab506caf6776be3396841de82f4ee07
100166169,5,2100074572120786849,正常天气,121.557914,39.156721,121.548164,39.164631,1580550163,1580550164,1580550195,1580552863,1580551424,5bae0da0159b9b504b837fcb37360b64,d05aa2d19117f0c1f141891d08a0a617
100166169,5,2100074572742755904,正常天气,121.56753,39.152683,121.543674,39.168531,1580550652,1580550653,1580550675,1580553892,1580551373,4c1f2c78239ea818129b24d13375d37e,564342f135d19f2f54b37817f3bb39a2
100170616,0,2100074537143240207,正常天气,121.459018,39.194913,121.446944,39.198341,1580478323,1580478324,1580517493,1580519700,1580479824,2cf5c416acc884d9ec46a71fb783904b,d3447f2abe2bc9f8d1fa82585af5326f
100170616,0,2100074541049841400,正常天气,121.456747,39.194614,121.454014,39.200861,1580517400,1580517400,1580517433,1580519200,1580518120,7b1669dc098c7c30be7113cfeb2b3755,2372966c9c2e22f8cfbae86513006649
100170616,2,2100074551540614664,正常天气,121.472941,39.199249,121.478204,39.207111,1580529939,1580529939,1580529974,1580532519,1580530719,0c3e0930279fc71aeb52a08228a88044,ec7e2214dba8dbf13bbe16345700a8ef
100170616,2,2100074553944737405,正常天气,121.472405,39.19925,121.486884,39.218421,1580530398,1580530399,1580530454,1580533278,1580530939,dd1a2eb7c05346096fe153abcf9ff25a,503dc62baccd18e725f3ce11b4870a0c
100170616,2,2100074552422696573,正常天气,121.472405,39.19925,121.486094,39.218901,1580530622,1580530623,1580530634,1580533562,1580531223,dd1a2eb7c05346096fe153abcf9ff25a,503dc62baccd18e725f3ce11b4870a0c
100170616,3,2100074561745323528,正常天气,121.472941,39.199249,121.471514,39.191271,1580536749,1580536749,1580536754,1580538729,1580537829,9533171ff446ebddd39cf78eebc5a272,ec7e2214dba8dbf13bbe16345700a8ef
100170616,3,2100074559377507458,正常天气,121.476607,39.191116,121.465124,39.193581,1580537121,1580537122,1580537201,1580539641,1580537330,9001ca429212011f4a4fda6c778cc318,66e1ea4062b94512aeac18047e3813dd
100170616,5,2100074581275936366,正常天气,121.462204,39.190921,121.456524,39.189951,1580562147,1580562148,1580562193,1580563948,1580562868,39d516dc07e7e6f2b92f4b9111aa85b3,6484289e938dc58a63d966ba11642a81
100170616,5,2100074581324859281,正常天气,121.456705,39.19458,121.459524,39.187011,1580562847,1580562848,1580563153,1580565187,1580563748,5196b052a156d14897d7050372b24b8a,985b6722a414ece1c777010ad5f33e4e
100170616,5,2100074583396976487,正常天气,121.459833,39.204073,121.465654,39.192541,1580563631,1580563642,1580563692,1580565731,1580564542,6bdb3bc0153a8b4f8b629822e50a8f78,c17d615334fa5b0126c10d4f0fee33f6
100177162,0,2100074547020760966,正常天气,121.608799,39.112347,121.613624,39.118321,1580523733,1580523914,1580523944,1580525773,1580524754,d3e8fc83b3e886a0dc2aa9845a5215bf,e2515a98b065c6e8cff5644ee10e0dee
100177162,0,2100074545539876544,正常天气,121.616096,39.113456,121.606394,39.112331,1580524331,1580524333,1580524423,1580526371,1580525413,6ca9acddbcb896200cbc8ed5e43f875d,6d325baa1e7d1cccc5eac1ab5d5638ed
100177162,1,2100074549414528482,正常天气,121.605177,39.118248,121.600844,39.115981,1580527339,1580527344,1580527364,1580529379,1580528004,4fa177df22864518b2d7818d4db5db2d,bc76c2bf0aa95caa38d477048a4ba413
100177162,1,2100074550736913846,正常天气,121.604571,39.110704,121.588524,39.100271,1580528008,1580528010,1580528024,1580530768,1580529090,dfd149e53e974295e2b2a005de31f795,987c07769294096b4b75b660f6ac6400
100177162,2,2100074561509492353,正常天气,121.604058,39.118702,121.618144,39.114921,1580537796,1580537798,1580537804,1580540076,1580538878,2dd7c1333118eebbbece72e0bb52316b,445d224d706b5fb89c3509cc18696c20
100177162,2,2100074562728724160,正常天气,121.617229,39.114475,121.629474,39.107581,1580538844,1580538892,1580538944,1580541364,1580539612,f15f3ba791e84ee98d32376054008b6e,02c4d653a95e769aae5911a2d57c6971
100177162,3,2100074562605155908,正常天气,121.610938,39.118465,121.610804,39.113471,1580540742,1580540808,1580540863,1580543022,1580541408,d6ff29116af95ffa408574ac596f13ab,588401697f4d2305c56eb12956afc26b
100177162,3,2100074565680596690,正常天气,121.610894,39.119182,121.605724,39.110421,1580542333,1580542336,1580542364,1580544613,1580543056,8a127744b76053361be18bc120c1132e,39911cddc268e5f64afbcba8a97318d1
100177162,3,2100074564623992290,正常天气,121.605177,39.118248,121.600594,39.115981,1580543846,1580543849,1580543863,1580545646,1580544449,4fa177df22864518b2d7818d4db5db2d,bc76c2bf0aa95caa38d477048a4ba413
100240426,0,2100074556581053718,正常天气,121.462372,38.946241,121.467424,38.954541,1580532861,1580532862,1580532898,1580536462,1580533942,b0666234a5977579a6136a722792b077,b5e5fc66f5d0fbe44338497f373a7d79
100240426,0,2100074556280440449,正常天气,121.45243,38.952821,121.489434,38.955751,1580533166,1580533189,1580533198,1580536226,1580533909,7fd24ada1dcaa8d104075cc5155be3e3,df7809652df82352c97dd45f6a436331
100240426,1,2100074570761798934,正常天气,121.462372,38.946241,121.453714,38.947381,1580549335,1580549336,1580549339,1580552936,1580550596,409a36246a4948d88e3e1da37dc4ae46,b5e5fc66f5d0fbe44338497f373a7d79
100240426,1,2100074572949686149,正常天气,121.452216,38.948596,121.465904,38.940071,1580549519,1580549520,1580549579,1580552220,1580551080,3bb82b2d8bd15cfb5f9d7aed78e77677,3500b2944c4d5f8674c696b10ede376f
100240426,3,2100074582744401174,正常天气,121.462372,38.946241,121.467014,38.953391,1580560395,1580560396,1580560438,1580563995,1580561896,b0666234a5977579a6136a722792b077,b5e5fc66f5d0fbe44338497f373a7d79
100240426,3,2100074583067035479,正常天气,121.469442,38.957186,121.498774,38.964701,1580560977,1580560979,1580561038,1580564097,1580562119,705985e8ec478925fa96293e39d9a811,a442f9f1af080d1c2e67c6ca58f83225
10037225,0,2100074545103931317,正常天气,121.543514,39.159146,121.536714,39.163311,1580522516,1580522516,1580522559,1580524796,1580523416,a6c6d653f8c528ceb872dfe4ba1becdd,1e820945a20767e981e0721fe89183cf
10037225,0,2100074546983306852,正常天气,121.545256,39.158497,121.563254,39.139251,1580523391,1580523489,1580523520,1580526151,1580524389,ce3404ee01a2d88eda35808e84280859,35ed05b1a684e2d05931d46af2aaa8f2
10037225,0,2100074546397283940,正常天气,121.545256,39.158497,121.555354,39.147541,1580523634,1580523640,1580523699,1580525854,1580524540,e791d0d0bdfaeb2ee048f17d40d0d487,35ed05b1a684e2d05931d46af2aaa8f2
10037225,0,2100074549126333696,正常天气,121.540846,39.151316,121.541224,39.153201,1580527194,1580527195,1580527240,1580528994,1580527795,705acdfcbe3d54c3eb0b1e91218e8c50,c7d29a336f149fe8d299d01588370087
10037225,0,2100074549754169164,正常天气,121.545589,39.15801,121.538304,39.175551,1580527691,1580527692,1580527720,1580530211,1580528292,a76e4ae696ec65ce782179578a555c6f,01818965b04607f0a102e8deed06e744
10038649,0,2100074550875522225,正常天气,121.360791,39.292041,121.341904,39.299031,1580529079,1580529080,1580529133,1580531419,1580530160,95630c681587de591da22f30e228a00d,cea604727072b9e2871d59fe79e08973
10038649,0,2100074552083056631,正常天气,121.362149,39.291649,121.349714,39.301141,1580529499,1580529500,1580529553,1580532079,1580530400,9c7ac211d14ea4849541a4098dccf251,3657bc0c499d3328bf0253bd46d1b29f
10038649,0,2100074552166220856,正常天气,121.334254,39.293088,121.329924,39.284901,1580530153,1580530154,1580531113,1580533333,1580530874,b3b5166d5d1ad4c020cd53368b3053ff,3c1def69fd01868fd2ea934f49f5e880
10038649,0,2100074554895500321,正常天气,121.346021,39.287567,121.356304,39.290111,1580530290,1580530589,1580530633,1580532570,1580531309,7fc50de5926f63efb6cbcddac88cb874,5338e9d66214faf34d1cbc077032d449
10038649,1,2100074556911257143,正常天气,121.347008,39.305532,121.348054,39.296461,1580533078,1580533079,1580533993,1580536378,1580533979,1c405ba0be0572eeee7abbd3f15cef9e,8a9beea3ce9aea55e1af7c7b1f0923be
10038649,1,2100074556913648817,正常天气,121.360791,39.292041,121.354074,39.300711,1580533093,1580533094,1580533153,1580535313,1580533874,3cd656c098e6f1a1ff517a5cf70d24e9,cea604727072b9e2871d59fe79e08973
10038653,0,2100074550998206455,正常天气,121.362149,39.291649,121.368654,39.304281,1580527929,1580527930,1580527933,1580530029,1580528830,70bced6522ff3188af88e5900c9d25c5,3657bc0c499d3328bf0253bd46d1b29f
10038653,0,2100074549814952977,正常天气,121.37495,39.303615,121.349114,39.301911,1580528361,1580528361,1580528473,1580531301,1580528484,9c7ac211d14ea4849541a4098dccf251,6cb93dc32dbc8b1b1b12a85700ed91f3
10038653,1,2100074558165419185,正常天气,121.360791,39.292041,121.348084,39.305701,1580533892,1580533893,1580533934,1580535872,1580534793,d01efc08436be720103d9fb5289772e7,cea604727072b9e2871d59fe79e08973
10038653,1,2100074558823598071,正常天气,121.362149,39.291649,121.348084,39.305701,1580534198,1580534198,1580534233,1580536298,1580535458,d01efc08436be720103d9fb5289772e7,3657bc0c499d3328bf0253bd46d1b29f
10038653,1,2100074558208837623,正常天气,121.362149,39.291649,121.348084,39.305701,1580534325,1580534326,1580534353,1580536665,1580535106,d01efc08436be720103d9fb5289772e7,3657bc0c499d3328bf0253bd46d1b29f
10038653,2,2100074564296181751,正常天气,121.362149,39.291649,121.348404,39.303821,1580542888,1580542888,1580542933,1580545168,1580543968,6509cbf63fac3a0f6a0aa5bd221c7ec8,3657bc0c499d3328bf0253bd46d1b29f
10038653,2,2100074564915234807,正常天气,121.362149,39.291649,121.348224,39.303791,1580543542,1580543542,1580543593,1580545882,1580544622,6509cbf63fac3a0f6a0aa5bd221c7ec8,3657bc0c499d3328bf0253bd46d1b29f
100429202,1,2100074569404581301,正常天气,121.376732,39.135899,121.397274,39.135711,1580546846,1580546847,1580546865,1580549426,1580547747,f11f0a3d2754168229103cd3a9a6f77c,478c81b3545dbcb16aa5bfaba7a04ae1
100429202,1,2100074568788018613,正常天气,121.376732,39.135899,121.395334,39.140271,1580547081,1580547082,1580547106,1580549601,1580547982,d09b9bb192e03903963e35b40e3f0399,478c81b3545dbcb16aa5bfaba7a04ae1
100429202,2,2100074571837604937,正常天气,121.374729,39.135643,121.347424,39.137391,1580550684,1580550686,1580550704,1580553744,1580551633,fdfc2f70ac9135acfb1cb620fe3aeace,df524bf0652ade63387ef136b19758d4
100429202,2,2100074573326845446,正常天气,121.377624,39.136541,121.346074,39.140701,1580550892,1580550908,1580550945,1580553892,1580551628,d6b2bb5148084cd920530d63403fed5f,d311e349e90b5356a87e0e87830b8e45
10043299,0,2100074551094117855,正常天气,121.595258,39.216399,121.581004,39.224281,1580528807,1580528809,1580528829,1580531327,1580529889,899db0ebddfcd0827dfb5de1a27a5820,62f8b654c50b603fec737639fc3c2e9e
10043299,0,2100074553573311988,正常天气,121.595535,39.21634,121.581924,39.226471,1580529572,1580529573,1580529610,1580531852,1580530173,1e085a34800093507a62a51ca44be708,4b5fc57646e99a1e3dda71fb0bdc65b4
10043801,1,2100074573116998807,正常天气,121.449211,39.115633,121.454434,39.111491,1580550849,1580550850,1580550855,1580554450,1580552350,3737aabe3a342f5030657bfe97acb76c,7d7f7ac575494de8e8711e04a59f1dc6
10043801,1,2100074573663897423,正常天气,121.45496,39.119696,121.453814,39.108511,1580550878,1580550882,1580550915,1580553518,1580551962,8b6cc2a1a5a771f24e333fed8c1f99d3,4e132580f76eb65c6b83848bf0ec855b
10043801,2,2100074576261809999,正常天气,121.45496,39.119696,121.464934,39.117311,1580553136,1580553142,1580553195,1580555476,1580554222,8946f4050db120aec4cc1784b425ca1a,4e132580f76eb65c6b83848bf0ec855b
10043801,2,2100074577540941375,正常天气,121.464466,39.125717,121.466084,39.122601,1580553784,1580553786,1580553794,1580556004,1580554746,1c869c5cffab8884ebd1904f53d193a5,d8d07168b9dda1df12c04e58826da86c
10043801,2,2100074577585702463,正常天气,121.464466,39.125717,121.467284,39.113421,1580554402,1580554405,1580554454,1580556742,1580555485,22e5410e9dd991402ec850d3c4804eaf,d8d07168b9dda1df12c04e58826da86c
100532962,1,2100074571255384024,正常天气,121.420294,39.160751,121.441344,39.152351,1580547982,1580547991,1580548057,1580551170,1580549011,9b65be421fb4da7f81c668404054cba1,03765200987cda5199f3cbdf0da77bcb
100532962,1,2100074570388703192,正常天气,121.420294,39.160751,121.410684,39.158011,1580549063,1580549087,1580549112,1580551486,1580549927,144cb22ba84d0bb4c1f0ba8e9aa4939d,03765200987cda5199f3cbdf0da77bcb
100532962,1,2100074571192797144,正常天气,121.420294,39.160751,121.440364,39.164941,1580550247,1580550260,1580550329,1580553139,1580551100,53fde96fcc4b4ce72d7739202324cd49,03765200987cda5199f3cbdf0da77bcb
100532962,2,2100074574639597528,正常天气,121.420294,39.160751,121.400344,39.149151,1580551787,1580551792,1580551801,1580554611,1580552512,2f555a25451c02b2aae350c2401ff6e4,03765200987cda5199f3cbdf0da77bcb
100532962,2,2100074573747849176,正常天气,121.420294,39.160751,121.411484,39.159491,1580551853,1580551869,1580551878,1580553908,1580552589,144cb22ba84d0bb4c1f0ba8e9aa4939d,03765200987cda5199f3cbdf0da77bcb
100532962,3,2100074574491223660,正常天气,121.416339,39.1526,121.436074,39.150731,1580553177,1580553179,1580553228,1580556597,1580554499,0758ade19bd78b877ac400dee5d5c6f4,bda50167a971e037f68312a4b888a0d0
100532962,3,2100074579250841183,正常天气,121.442841,39.157186,121.462584,39.152861,1580555381,1580555968,1580555988,1580560781,1580557001,9e00d18190de577eced01de6a51a24a6,4f96cfe1b8a8a96308c0b48bf99b3e33
10053442,0,2100074552843470566,正常天气,121.457302,39.257077,121.459124,39.264071,1580530560,1580530562,1580530569,1580534580,1580531102,a9a1b1afd4c9cf182c4d0a1dde7c5cf8,aa70ef1c6442ad84832f727a2da00abf
10053442,0,2100074555507934211,正常天气,121.450916,39.26504,121.439484,39.249131,1580530998,1580531000,1580531049,1580533998,1580531960,02f063c236c7eef66324b432b748d15d,5a5de6cfd113fcacad2bdb317e43bd19
10053442,0,2100074554931447159,正常天气,121.451019,39.265159,121.448544,39.252771,1580531082,1580531086,1580531109,1580533482,1580531806,90b2cb1756e24bf3a1c8324fab24c9ea,40852d8daf26a2a7020d9d0b1335c9f4
10053442,1,2100074560246940807,正常天气,121.480524,39.250251,121.462764,39.251761,1580536972,1580536976,1580536988,1580538832,1580537636,bc989c633472b6cb6cc7e2d9a98deb26,14fc47775f4812d6f6b8ef57dfa58cb6
10053442,1,2100074561885177574,正常天气,121.457302,39.257077,121.466774,39.243501,1580538437,1580538438,1580538488,1580542697,1580541138,bdd698d7f5046cae0e5362da17341fa3,aa70ef1c6442ad84832f727a2da00abf
10053442,1,2100074561235126012,正常天气,121.459968,39.251352,121.466574,39.243651,1580538548,1580538573,1580538608,1580540888,1580539473,da600141c05c0399c4f2b54debdc7f38,b3d7ad7eab9dbec945595dcdf451d54b
10053442,1,2100074562553644479,正常天气,121.460516,39.251293,121.453044,39.245701,1580540181,1580540182,1580540228,1580542822,1580541442,76db0d133d4f570effdb4d59c9fb258c,bd3e676e6a5fdeb31287d86fa0b2cc28
10053442,1,2100074563143796159,正常天气,121.460516,39.251293,121.464174,39.262891,1580540531,1580540532,1580540589,1580542932,1580541792,bff7da08a279f113406b95a6b363371d,bd3e676e6a5fdeb31287d86fa0b2cc28
10053442,2,2100074566220089062,正常天气,121.457302,39.257077,121.461524,39.265311,1580544913,1580544915,1580544969,1580549053,1580545635,caa509f5d28613ce0c4a098ea2ccea55,aa70ef1c6442ad84832f727a2da00abf
10053442,2,2100074568405190389,正常天气,121.462867,39.261262,121.470304,39.253191,1580545911,1580545933,1580545988,1580547951,1580546833,59a7282f2d4b127417b62c9ff1fe7252,10a1bf4860b450eca51cbe37576caa16
10053442,2,2100074568250951473,正常天气,121.467049,39.254396,121.466074,39.243591,1580546962,1580546966,1580547008,1580549542,1580548046,da600141c05c0399c4f2b54debdc7f38,e55b89528581e65e1840b730711be665
10063068,0,2100074547073189303,正常天气,121.480444,39.063541,121.480974,39.066361,1580525010,1580525011,1580525019,1580526810,1580525671,f82f40fa05af8d09e3f54a5518530605,96677b5ebd4a40ec3f5618a57305fd4c
10063068,0,2100074545642636686,正常天气,121.479739,39.072134,121.478594,39.060591,1580525683,1580525684,1580525740,1580529103,1580526764,63566762fc660c35d20c804ebd5edbf6,c0c7254e6dba9801665af5ec6ece4558
10063068,0,2100074548951123352,正常天气,121.478006,39.071964,121.479074,39.059131,1580525777,1580525778,1580525799,1580527817,1580526678,63566762fc660c35d20c804ebd5edbf6,fd06d3c70d0f007e3159d88515e25b43
10063068,0,2100074547829114254,正常天气,121.479739,39.072134,121.491064,39.057461,1580525903,1580525904,1580525920,1580529023,1580527164,c7037ef9cbfcc7073c1fc4efe06c8457,c0c7254e6dba9801665af5ec6ece4558
10063068,1,2100074553033229696,正常天气,121.472764,39.063927,121.475674,39.069441,1580531097,1580531098,1580531141,1580532897,1580531638,ed609230523b68ba2b2e34ca5337d96c,6aee21311cc089bbbe5b64cd4ea7c531
10063068,1,2100074554939836123,正常天气,121.471964,39.069041,121.496224,39.064891,1580531119,1580531120,1580531140,1580533639,1580532020,f885c6ddc57c59d8451bde51af1e0ed7,37fddf29d1944618c32ced6f8ec4ee07
10063192,0,2100074547397887374,正常天气,121.479739,39.072134,121.505864,39.070621,1580524555,1580524556,1580524599,1580527435,1580525576,a0de4f452f88367fb9aebae9dfd6c410,c0c7254e6dba9801665af5ec6ece4558
10063192,0,2100074547697878414,正常天气,121.479739,39.072134,121.480524,39.073151,1580525110,1580525111,1580525140,1580527570,1580526011,2b2d90a01b2abe98e01849a00856e00f,c0c7254e6dba9801665af5ec6ece4558
10063192,1,2100074551157687501,正常天气,121.48395,39.0646,121.504394,39.071841,1580529176,1580529178,1580529220,1580532116,1580530258,a0de4f452f88367fb9aebae9dfd6c410,bb69771d5fde6210a7cba6038ae27691
10063192,1,2100074552098620621,正常天气,121.48395,39.0646,121.489904,39.068501,1580529542,1580529544,1580529580,1580531882,1580530624,a4b8e0c7e862301ca2773651f84e0bac,bb69771d5fde6210a7cba6038ae27691
10063192,2,2100074565203953399,正常天气,121.479636,39.072151,121.497634,39.057261,1580542685,1580543269,1580550699,1580553900,1580544769,f55902ba49dd8aa23b698a94f9dfc47c,d760c12c2267518b380218058fe92751
10063192,2,2100074571824858871,正常天气,121.479636,39.072151,121.506214,39.060821,1580549974,1580550557,1580550579,1580555374,1580554157,823dfc64e593d9724a0c926c44d642ab,d760c12c2267518b380218058fe92751
10063192,2,2100074573182732192,正常天气,121.479197,39.072576,121.488804,39.059031,1580551229,1580551241,1580551300,1580553809,1580551961,0e08d2a113f46b9810fd84be6e0627e7,fbaa325fa4ef64d4df244c72f813dc24
10067592,0,2100074552674453127,正常天气,121.581806,39.210716,121.565394,39.210451,1580529332,1580529333,1580529365,1580532632,1580530773,7d31aca973300028d2f8a383256859fb,239b1936bbe7fa3af316a7a477cb5aba
10067592,0,2100074553996576095,正常天气,121.567954,39.206922,121.577094,39.205061,1580530772,1580530773,1580530805,1580533412,1580531673,4e1bd08fa0a0795b2b2b618340fd11fd,d25d7711088816b227885661b4c1eb99
10067592,1,2100074573001197477,正常天气,121.598538,39.208117,121.589274,39.209401,1580550112,1580550118,1580550125,1580552752,1580551558,6d114d77f19f3e48abb5be90e35e3fe2,66042646741103c2921e18a9cbc89da1
10067592,1,2100074574550566372,正常天气,121.591109,39.208194,121.591174,39.208201,1580551101,1580551102,1580551144,1580553381,1580552002,b663403a743ebbca8de40b21d39dab62,9365213044f36704f788833712a50fad
10067592,1,2100074575390114861,正常天气,121.596429,39.206843,121.577934,39.222481,1580552911,1580552914,1580552945,1580555611,1580553634,a4d74457abdc7a29229ad805f4c5c726,d1edec007aa81869947f602893e8d1e8
10067592,1,2100074576265348323,正常天气,121.596334,39.207911,121.577914,39.222531,1580553159,1580553162,1580553184,1580556339,1580554422,a4d74457abdc7a29229ad805f4c5c726,4938832c86a92920ef833c552f747a8e
100681730,0,2100074530361804536,正常天气,121.601105,39.137024,121.584554,39.116471,1580467729,1580467730,1580523845,1580526900,1580469230,e5059162349d42fe9e69450c1b42a33e,8944ec8db309614c49fc787d3ba12f44
100681730,0,2100074535382320888,正常天气,121.601105,39.137024,121.599464,39.115791,1580479985,1580480560,1580524025,1580530980,1580482060,4324a7c9a292bbef10e9924655d1259a,8944ec8db309614c49fc787d3ba12f44
100681730,0,2100074544664643320,正常天气,121.601105,39.137024,121.597554,39.117641,1580522526,1580523114,1580523126,1580527926,1580525406,701a00f30d9f8a9743040b0f5c698dee,8944ec8db309614c49fc787d3ba12f44
100681730,0,2100074545854351096,正常天气,121.601105,39.137024,121.602354,39.130101,1580522585,1580523170,1580523185,1580527985,1580525465,40d096df6b8ecc15bd8cf38b7794308f,8944ec8db309614c49fc787d3ba12f44
100681730,1,2100074550379152423,正常天气,121.587304,39.126911,121.596044,39.132201,1580528041,1580528043,1580528106,1580530981,1580529303,8d70a202993931e8eb0792217e076417,a94b6f73ec8ab986e905b13900169329
100681730,1,2100074551182853921,正常天气,121.594908,39.138988,121.599744,39.141781,1580528667,1580529261,1580529306,1580530947,1580529747,a29ad0500c7733fdd0f053399caedc69,a00eb27d3f279b7c8c2e1c2229080cbf
100681730,1,2100074553720210900,正常天气,121.589994,39.139901,121.568424,39.143791,1580530632,1580530633,1580530685,1580533212,1580531473,d8f7ed07bc48fc5e4a330405aafc4697,b151db2671e3ea0e67c3e4b65399aeeb
100681730,1,2100074554082329918,正常天气,121.576544,39.139641,121.585414,39.130881,1580531453,1580531454,1580531645,1580534213,1580532714,a2dbebb3fac2f904930bb135132f18d9,1e6813483071d17547abf648bf5d4732
100681730,2,2100074567605978414,正常天气,121.589204,39.131658,121.595084,39.128961,1580547728,1580547730,1580547785,1580550188,1580548630,765543e6ba1d006441cc866d24eb3a4c,2a3869da31ae6c191322e02cc5efa747
100681730,2,2100074571390682695,正常天气,121.58993,39.126731,121.586964,39.120391,1580548797,1580548797,1580548805,1580551977,1580550057,1eb5a4818502b366c169da4218db2238,efcd5a3cd9ec4f20b42528ba3d24e5b1
100681730,2,2100074571487872871,正常天气,121.575781,39.122972,121.581344,39.123911,1580549557,1580549557,1580549585,1580551957,1580550457,b0a99a5e294e4ddc2f6dcb20bdbc320b,13f54757315c0fbb9212c3c283e25c7e
100681730,2,2100074573106317159,正常天气,121.575781,39.122972,121.589494,39.114391,1580550807,1580550807,1580551445,1580554167,1580552067,98e44306981e93e272dbb17faad4ca8f,13f54757315c0fbb9212c3c283e25c7e
100681730,3,2100074576808281746,正常天气,121.595619,39.13698,121.580504,39.125341,1580553284,1580553285,1580553304,1580556344,1580554485,e5b0820745bfe0b852ba4f27607e6c39,90dfc25655875166aa02dbc42bcac087
100681730,3,2100074576300573998,正常天气,121.589204,39.131658,121.584574,39.132001,1580553408,1580553416,1580553425,1580557728,1580555036,65479ca82cb4a6d6fe4577f31dc78c22,2a3869da31ae6c191322e02cc5efa747
100681730,3,2100074579449022418,正常天气,121.584624,39.132524,121.586754,39.134381,1580555578,1580555579,1580555585,1580557858,1580556659,866f5b710822de67352f956764673846,08fe1eef8dad814b6d11ea2fd98e452b
100681730,3,2100074578045536236,正常天气,121.590083,39.130361,121.616534,39.131371,1580556506,1580556507,1580556545,1580559206,1580557287,283a22e42f3365c8f4f52cff9edabb5a,932ff6b73f1cc749a085d639e918c8c4
10081729,1,2100074547854378902,正常天气,121.53031,39.146285,121.532974,39.162101,1580526145,1580526146,1580526159,1580528545,1580527226,b7d9c9622a762ed24baf04f00de645cb,a01b235a0577983605716943b6c30fff
10081729,1,2100074548785153652,正常天气,121.529704,39.160908,121.521464,39.159951,1580526694,1580526696,1580526759,1580528614,1580527296,52628fb435f7d7cba40495bec7216083,8d187c4ce8d7e289b0be02bb0b8c5632
10081729,1,2100074550357657282,正常天气,121.523001,39.158769,121.525374,39.160331,1580527650,1580527650,1580527659,1580529450,1580528310,21d3e06e3ff6744e0febea43b78ce7e8,a45125ddab6ec347811493590eaaede9
10081729,2,2100074571450746320,正常天气,121.544273,39.151723,121.523694,39.165381,1580549257,1580549259,1580549319,1580552317,1580550159,4fbd28731f6c373b02085d01d21306a9,3827ade86aa4f462929cd2c43793a2b2
10081729,2,2100074570769860137,正常天气,121.540857,39.151919,121.525964,39.160241,1580549357,1580549365,1580549379,1580551637,1580550021,3d6bc9062fdcd27acc772465049739c1,96213301b0c4e3b77ab370954d5aecb2
10081729,2,2100074572409210484,正常天气,121.529704,39.160908,121.525974,39.160221,1580549605,1580549608,1580549619,1580551525,1580550508,3d6bc9062fdcd27acc772465049739c1,8d187c4ce8d7e289b0be02bb0b8c5632
10081729,3,2100074577494083478,正常天气,121.53031,39.146285,121.529254,39.151191,1580553460,1580553460,1580553519,1580555560,1580554300,5b6b857c2d741e1fb574561fb4f2647f,a01b235a0577983605716943b6c30fff
10081729,3,2100074575427339817,正常天气,121.540857,39.151919,121.540824,39.158601,1580553813,1580553821,1580553879,1580555613,1580554541,04ded593de8abd56e4c6a7b652c091e4,96213301b0c4e3b77ab370954d5aecb2
10081729,3,2100074576899704361,正常天气,121.540857,39.151919,121.564504,39.167151,1580553963,1580553971,1580553999,1580556783,1580554511,f16b1b95e695d6821925683ce068a7d8,96213301b0c4e3b77ab370954d5aecb2
10094682,0,2100074546732762246,正常天气,121.539482,39.135252,121.532234,39.132801,1580523818,1580523820,1580523859,1580525618,1580524720,40dba662fae60cd3bcceaa76a82d2873,2f7736dcc94e2deb5db9c248c7402b0b
10094682,0,2100074545554982551,正常天气,121.524741,39.133671,121.540904,39.133261,1580524428,1580524621,1580524639,1580526888,1580525521,dc98698acd791ee165012abfe1510b3e,49d285654c5523bb33047919ea0d22c2
10094682,0,2100074547963135352,正常天气,121.524741,39.133671,121.540654,39.132691,1580524679,1580524680,1580524699,1580527199,1580525940,506f74eaab4e5e8bfce448284a612685,f263e3e4c1256d73a326bc1631afe153
10094682,0,2100074548119504051,正常天气,121.54349,39.127309,121.540294,39.121601,1580526161,1580526164,1580526260,1580528561,1580527244,8d53ca94b28d41b3429696c0bfe3a120,dcfa26570f57e5278df321d8e431a041
10094682,0,2100074550290023727,正常天气,121.540515,39.121154,121.525404,39.121511,1580527229,1580527246,1580527399,1580529809,1580528326,609917eb48723921e976c1ab7f0cb1ce,b6d35ea12bc983875407f6fcfac4474b
10094682,0,2100074550006777135,正常天气,121.540515,39.121154,121.525404,39.121511,1580527268,1580527289,1580527400,1580529848,1580528369,609917eb48723921e976c1ab7f0cb1ce,b6d35ea12bc983875407f6fcfac4474b
10094682,0,2100074550811625124,正常天气,121.525175,39.12759,121.534034,39.135241,1580528578,1580528584,1580528599,1580530558,1580529484,fccb60fb512d13df5083790d64c4d5dd,f2351a9e8608f6dd67738567b8e9b84d
10094682,0,2100074551744759460,正常天气,121.525175,39.12759,121.529254,39.128281,1580528775,1580528779,1580528839,1580530575,1580529679,39d8fa6a876f3c4681d65bac6116bfb1,f2351a9e8608f6dd67738567b8e9b84d
10094682,0,2100074553292719949,正常天气,121.531076,39.138214,121.522814,39.130101,1580529646,1580529646,1580529679,1580531986,1580530546,6539b9b43f8c4140ef368ead0533c803,884959159ae141cf62c26ea2c7118b64
10094682,0,2100074555502069639,正常天气,121.522809,39.13011,121.520504,39.119881,1580530548,1580530969,1580530999,1580533788,1580532168,4ef7c3f86236671cb2b7eebc48bb0fec,a64391b1349d1e9f6c8590079a7772a8
10094682,0,2100074556675720986,正常天气,121.519072,39.133222,121.525454,39.145481,1580533559,1580533560,1580533579,1580536199,1580534340,d422942756fe3399a65d05830defb983,55f154ed8949ae0651b0b71315d97616
10094682,0,2100074556720907660,正常天气,121.519668,39.131527,121.521654,39.140631,1580533933,1580533933,1580533940,1580536273,1580534833,89e05c83f63a7001c10c87f621716215,aeee5701dfdd0b9564d0534ea7b51119
10094682,0,2100074560121964257,正常天气,121.544708,39.14023,121.530724,39.145031,1580536039,1580536040,1580536099,1580538379,1580536940,46a1fca5c8ee9c6cb854cef75ac3e094,88445d6b73fd1dd3e911995a59d5f2f8
10094682,2,2100074574411957761,正常天气,121.523398,39.140486,121.529134,39.134931,1580552351,1580552369,1580552419,1580555111,1580553629,0652b4daa239950b4b8d1e44e3a1017b,833fbcf9242ab1bd240aab06cea431a7
10094682,2,2100074577218897693,正常天气,121.531154,39.137572,121.518114,39.133491,1580553823,1580553823,1580553859,1580556223,1580554903,1a059b8ef74b8da673daa9c405f9a0d1,c3c9ea1f444a997883e432b400507a1d
10094682,2,2100074577874650823,正常天气,121.525063,39.132134,121.535644,39.115701,1580554633,1580554635,1580554939,1580557993,1580555595,d4e45be05e57caa7fda1a17f6e8da11f,cbc7bb0e27984e15dc44748102d6596c
10094682,3,2100074579032704711,正常天气,121.525063,39.132134,121.541484,39.141881,1580557449,1580557450,1580557459,1580560449,1580558710,627ec8d489b31f1e2f8ea1b8fd8f1aaf,cbc7bb0e27984e15dc44748102d6596c
10094682,3,2100074581720597942,正常天气,121.540073,39.134559,121.546544,39.146901,1580558435,1580558436,1580558632,1580560895,1580559336,ad8222e53243dd2a7f9440278ca6a5f9,10dfdae98308e5b3e621e8dcf2c04d9f
10097074,0,2100074550332589609,正常天气,121.304879,39.128612,121.317204,39.129901,1580527493,1580527494,1580527504,1580529293,1580528034,7d52353df44369441884b51be2237788,a43fd453054a094cf7d76082c3a90d77
10097074,0,2100074549792638584,正常天气,121.314942,39.128506,121.327304,39.122941,1580528185,1580528186,1580528224,1580530525,1580529086,dc1dfb73aa6beede6d63b90f31ed4448,3ae955548f6b6ec96ba8d6af1b297aa2
10097074,0,2100074550141781624,正常天气,121.314942,39.128506,121.325474,39.121121,1580528286,1580528287,1580528345,1580530566,1580529187,db062d5f573c1600ed47848eb04fb6bd,3ae955548f6b6ec96ba8d6af1b297aa2
10097074,1,2100074553043846697,正常天气,121.304879,39.128612,121.314624,39.152241,1580531150,1580531151,1580531164,1580533550,1580531871,15886766b7f7da1a48ed212ba3df992f,a43fd453054a094cf7d76082c3a90d77
10097074,1,2100074555621705288,正常天气,121.309311,39.130289,121.314194,39.153581,1580531582,1580531583,1580531644,1580534522,1580532663,0bce375f7cdd9f2ba33ba07c3ea0453c,c9084062fa1d899d3bbf59e61e75f12a
10097074,2,2100074559589746217,正常天气,121.304879,39.128612,121.318574,39.131631,1580536169,1580536170,1580536204,1580537969,1580536710,6cbd7de942af17aad70288fafa412b88,a43fd453054a094cf7d76082c3a90d77
10097074,2,2100074558437001165,正常天气,121.318963,39.128046,121.309314,39.130291,1580536498,1580536499,1580536504,1580538418,1580537159,d7aab42e6b85c49c0f1d3a115e939c74,514ae18abd1cd980f7e16d1e32413088
10098837,0,2100074544785753724,正常天气,121.429085,39.197715,121.423304,39.196111,1580521413,1580521925,1580521948,1580526813,1580523753,839ab46820b524afda05122893c2fe8e,406a47750b2960d4666f4dc63f704d9f
10098837,0,2100074543926118012,正常天气,121.429085,39.197715,121.420514,39.190831,1580521641,1580522211,1580522250,1580527041,1580523801,fae314048bbed2374425fda048eda311,406a47750b2960d4666f4dc63f704d9f
10098837,0,2100074543932966524,正常天气,121.429085,39.197715,121.416794,39.191351,1580521699,1580522288,1580522310,1580527099,1580525888,67c17e9715e1d056cc1fa440f1335e34,406a47750b2960d4666f4dc63f704d9f
10098837,0,2100074545750214268,正常天气,121.429085,39.197715,121.419804,39.194501,1580521786,1580522187,1580522189,1580527186,1580524126,5867ab1394617abef51ecc95b2a718af,406a47750b2960d4666f4dc63f704d9f
10098837,1,2100074556621489788,正常天气,121.429085,39.197715,121.410694,39.181661,1580532549,1580533145,1580533169,1580537949,1580536745,18615b3ead691b0bb8fbf40792f634f2,406a47750b2960d4666f4dc63f704d9f
10098837,1,2100074559125226934,正常天气,121.427664,39.197109,121.423774,39.195261,1580533995,1580533999,1580534009,1580535855,1580534899,c04fb97b097d8814c6878902dc573e95,be647c18e6938077d6cb27d53edf0e02
10098837,1,2100074559175657335,正常天气,121.426464,39.198277,121.417094,39.190901,1580534243,1580534245,1580534249,1580536343,1580534965,67c17e9715e1d056cc1fa440f1335e34,6a52ad80333cda256ab285677aff31c3
10098837,2,2100074563614213756,正常天气,121.429085,39.197715,121.415944,39.213081,1580540604,1580541182,1580541209,1580546604,1580542764,0a17db46bd7f84b3d42c16796e538416,406a47750b2960d4666f4dc63f704d9f
10098837,2,2100074564190111629,正常天气,121.427655,39.196978,121.411844,39.213561,1580541715,1580541717,1580541749,1580544775,1580542977,1b54dceed318a80f56a177ce4aea7a91,9515aeb97d958c981eee79e6b065ae3c
10098837,4,2100074576731801212,正常天气,121.429085,39.197715,121.427734,39.213651,1580554139,1580554733,1580554769,1580559539,1580555939,416002d445a04ec6afb691115707c38a,406a47750b2960d4666f4dc63f704d9f
10098837,4,2100074579435849340,正常天气,121.429085,39.197715,121.427734,39.213651,1580554926,1580555521,1580555549,1580560326,1580557086,416002d445a04ec6afb691115707c38a,406a47750b2960d4666f4dc63f704d9f
10098837,4,2100074578286413436,正常天气,121.429085,39.197715,121.426124,39.214521,1580555233,1580555824,1580555849,1580560633,1580557213,416002d445a04ec6afb691115707c38a,406a47750b2960d4666f4dc63f704d9f
10098837,4,2100074580103235196,正常天气,121.429085,39.197715,121.426124,39.214521,1580556023,1580556615,1580556629,1580561423,1580558003,416002d445a04ec6afb691115707c38a,406a47750b2960d4666f4dc63f704d9f
10098837,4,2100074578969101948,正常天气,121.429085,39.197715,121.426124,39.214521,1580556072,1580556662,1580556689,1580561472,1580558052,416002d445a04ec6afb691115707c38a,406a47750b2960d4666f4dc63f704d9f
10100267,0,2100074543558166275,正常天气,121.426981,39.267431,121.428234,39.253321,1580520762,1580521348,1580521383,1580525082,1580524948,29dcf6e68b94b3e35b12f7d24a7ccd10,b9b845d8a1b212c195a8e4c319b3a2eb
10100267,0,2100074543909504771,正常天气,121.426981,39.267431,121.434544,39.259171,1580521283,1580521864,1580521923,1580525603,1580525464,aff5fd999db954ea7f99c027eb11a5ab,b9b845d8a1b212c195a8e4c319b3a2eb
10100267,1,2100074559438849176,正常天气,121.415025,39.261668,121.412914,39.267811,1580534324,1580534507,1580534523,1580537264,1580535584,4f998a8a2d295945d71206e84236299a,2602cb1b64f25293093f810d6c22f379
10100267,1,2100074557968516133,正常天气,121.413438,39.270827,121.421594,39.285691,1580535254,1580535259,1580535303,1580537774,1580536039,9f24dc8528ff5891b850a6165ee62b87,6b54282da0c4d6589356429f373956f1
10100267,1,2100074557371483187,正常天气,121.416276,39.272499,121.420454,39.286221,1580535821,1580535822,1580535843,1580538341,1580536722,9f24dc8528ff5891b850a6165ee62b87,4874ba1a17e5a23b66c7452d4a223a64
10100267,2,2100074561980040750,正常天气,121.408486,39.262435,121.381304,39.266801,1580539248,1580539249,1580539263,1580542968,1580541049,d80126524c1e9641333502c664fc6ca1,194a2034bcff9ce8de0454a173cd6d0f
10100267,2,2100074560935134811,正常天气,121.415183,39.261474,121.384874,39.262031,1580539411,1580539420,1580539444,1580542111,1580540200,bbbb9d69ad3784f4eb8f272c49adf2e3,25c2e77634d9706eb5fd21d612aaf296
101009538,0,2100074545168451248,正常天气,121.799383,39.145295,121.803214,39.137041,1580522847,1580523148,1580523208,1580525247,1580524287,14c5101cc6230943d3df40b28a75f93d,a18cf94f4a19a919d4ed38b8291b414e
101009538,0,2100074545878173204,正常天气,121.786628,39.147609,121.795334,39.149511,1580523408,1580523414,1580523817,1580525388,1580524314,1df13da5edcf1a895e01b75eaa9197c4,0718c184508d0c7912deee861f0fdf14
101009538,0,2100074545306010734,正常天气,121.794995,39.146847,121.792114,39.144161,1580524459,1580524460,1580524469,1580526919,1580525660,425484af966402da5c39953acb6185a0,64856894e2edec74dd8948b41e1a63a6
101009538,0,2100074547690702614,正常天气,121.786213,39.147029,121.787254,39.145771,1580525065,1580525066,1580525068,1580526865,1580525966,2d95666e2649fcfc6e3af75e09f5adb9,3f809ae71fc56dbc9fb293cddda4c0e6
101009538,0,2100074548050560110,正常天气,121.794995,39.146847,121.791954,39.153141,1580525421,1580525422,1580525608,1580528121,1580526622,f7c3a5db366883a39fd98d7307e474d4,64856894e2edec74dd8948b41e1a63a6
101009538,0,2100074548453476069,正常天气,121.798654,39.145237,121.789274,39.161961,1580525749,1580526267,1580526268,1580530069,1580529867,f81411705805800495ad11c8e55afb29,4300512170d17526148dbd846a1eb893
101009538,0,2100074549032355363,正常天气,121.794998,39.146843,121.772294,39.132761,1580526451,1580526452,1580526508,1580529211,1580527352,1a32f36772fc65cdd13811da2d6eb65f,cc8b8fca88e62796713f361a7ba339c1
101009538,0,2100074550023554675,正常天气,121.801571,39.148377,121.787954,39.161211,1580527371,1580527372,1580527409,1580530311,1580528272,f81411705805800495ad11c8e55afb29,2a54c5fa32d240e2fb23c3fa213e054f
101009538,0,2100074550090270486,正常天气,121.786213,39.147029,121.767844,39.168321,1580527957,1580527957,1580528009,1580531557,1580528857,dbf66a7f1a9e53a4a026c1afa35cc261,3f809ae71fc56dbc9fb293cddda4c0e6
101009538,0,2100074550177498395,正常天气,121.786323,39.150427,121.771254,39.154011,1580528669,1580528680,1580528729,1580531669,1580529760,abacd9335d5e7fe5f9af06bfea4fefbd,c8e77242b29d25050abf824498314b78
101009538,0,2100074553282529046,正常天气,121.786213,39.147029,121.766524,39.163001,1580529579,1580529580,1580529629,1580532699,1580530480,08cfc9e984e5fdddc4d206bbfc8de69c,3f809ae71fc56dbc9fb293cddda4c0e6
101009538,0,2100074555183072845,正常天气,121.784715,39.146658,121.816154,39.137061,1580530659,1580530662,1580530807,1580533959,1580531742,c53059ccc186c60f9a28c8d03d6d4069,9a6c15b1d108538580135d70aa0d43bc
101009538,0,2100074555214661175,正常天气,121.800652,39.148419,121.813294,39.136511,1580530905,1580530908,1580530949,1580533665,1580531688,b091de4aa00ffc8e0a760d45c93b1b2c,25efd3fe170fd8b995b940cdd28c394f
101009538,0,2100074555512882459,正常天气,121.786323,39.150427,121.807244,39.127801,1580531019,1580531032,1580531099,1580534319,1580531992,35514bbd3d1191660c1710acdd059cac,c8e77242b29d25050abf824498314b78
101009538,0,2100074555244807851,正常天气,121.79889,39.14509,121.801724,39.131491,1580531432,1580531449,1580531703,1580533892,1580532169,ce33a73e4818cfe0809b7df82448264e,0a6754ed0b90c2fed063610b9011c7f2
101009538,1,2100074555468580528,正常天气,121.799383,39.145295,121.788694,39.161081,1580532984,1580533286,1580533348,1580535564,1580534244,f81411705805800495ad11c8e55afb29,a18cf94f4a19a919d4ed38b8291b414e
101009538,1,2100074556960016307,正常天气,121.798371,39.154563,121.811704,39.138331,1580533898,1580533899,1580534112,1580537438,1580535699,5889b44deaa67c5b89daf84e8d046abc,e04f30921ff61bc9ad2404ad15052f65
101009538,1,2100074556761703902,正常天气,121.799082,39.147794,121.799384,39.134961,1580534275,1580534281,1580534308,1580536735,1580535541,90972d1e5e03923bdd756ec90cecf7c2,dfb4290b8d82dfcfd333453e5d4b791f
101009538,3,2100074564106192439,正常天气,121.800652,39.148419,121.765054,39.163811,1580540659,1580540663,1580540690,1580543719,1580541563,08cfc9e984e5fdddc4d206bbfc8de69c,25efd3fe170fd8b995b940cdd28c394f
101009538,3,2100074565003151019,正常天气,121.79889,39.14509,121.766954,39.169211,1580541065,1580541104,1580541148,1580544245,1580541824,dbf66a7f1a9e53a4a026c1afa35cc261,0a6754ed0b90c2fed063610b9011c7f2
101009538,4,2100074568171587413,正常天气,121.799583,39.145021,121.809174,39.160511,1580546452,1580546455,1580546488,1580550412,1580547715,5de805911ffd63925f6bb0c40b9cec0f,c486f99a35606141d3d761825ac440ac
101009538,4,2100074569399011157,正常天气,121.799583,39.145021,121.813864,39.131201,1580546796,1580546799,1580546908,1580549676,1580548059,ce607ba4532d25f133f194809d0df6c5,c486f99a35606141d3d761825ac440ac
101009538,4,2100074569503770167,正常天气,121.800652,39.148419,121.810144,39.123231,1580547646,1580547649,1580548192,1580550166,1580548429,b4df9f494056d51f86c7f1a89850c467,25efd3fe170fd8b995b940cdd28c394f
101009538,5,2100074573851461086,正常天气,121.799082,39.147794,121.792034,39.144511,1580550076,1580550077,1580550088,1580552836,1580551277,425484af966402da5c39953acb6185a0,dfb4290b8d82dfcfd333453e5d4b791f
101009538,5,2100074574223738544,正常天气,121.799383,39.145295,121.792124,39.138351,1580550368,1580550669,1580550688,1580553248,1580551869,b49626ca474fbcae015bb6259c5d5e12,a18cf94f4a19a919d4ed38b8291b414e
101009538,5,2100074575237383278,正常天气,121.794995,39.146847,121.792264,39.137991,1580551539,1580551540,1580551588,1580554359,1580552440,b49626ca474fbcae015bb6259c5d5e12,64856894e2edec74dd8948b41e1a63a6
101009538,6,2100074575349777518,正常天气,121.794995,39.146847,121.792644,39.160941,1580552510,1580552511,1580552548,1580555270,1580553711,f81411705805800495ad11c8e55afb29,64856894e2edec74dd8948b41e1a63a6
101009538,6,2100074575938389470,正常天气,121.799082,39.147794,121.798404,39.157821,1580552532,1580552537,1580552549,1580554752,1580553377,e0277b669083bf33a8be85e79a8196a9,dfb4290b8d82dfcfd333453e5d4b791f
101009538,6,2100074576503866935,正常天气,121.800652,39.148419,121.799154,39.152601,1580552787,1580552788,1580552848,1580554707,1580553568,2d7753dcce174c32bbf454970826c747,25efd3fe170fd8b995b940cdd28c394f
101009538,6,2100074578132305374,正常天气,121.799082,39.147794,121.759744,39.145671,1580553811,1580553814,1580553868,1580556991,1580555074,114f3990f9dd98c4380becc867b6fbf9,dfb4290b8d82dfcfd333453e5d4b791f
101009538,7,2100074579013338679,正常天气,121.800652,39.148419,121.770244,39.135501,1580557235,1580557235,1580557523,1580559995,1580558015,7f8307033ea2ce07d618e163b7804c25,25efd3fe170fd8b995b940cdd28c394f
101009538,7,2100074579016091213,正常天气,121.784715,39.146658,121.758474,39.145721,1580557249,1580557254,1580557289,1580559949,1580558034,6f0f457821eb34aa93abac5c82d3efa4,9a6c15b1d108538580135d70aa0d43bc
10102738,0,2100074546106599024,正常天气,121.226504,39.153253,121.206944,39.162441,1580523772,1580523780,1580523804,1580527792,1580525040,9a50fe21b27804f37c66c0dfa01c1158,f7d84abbdc88f27a244db1a24916ba12
10102738,0,2100074545965139047,正常天气,121.226139,39.151951,121.219454,39.146581,1580524654,1580524655,1580524741,1580526874,1580525375,6768d988a86e72d2c171538b82dbcf27,b294db98dc2bdec3ae589d939b6fce12
10102738,1,2100074559457199548,正常天气,121.209354,39.161565,121.215294,39.148661,1580534782,1580534787,1580534844,1580538382,1580535867,d1d275c847a353494675b776c8b0e63e,134b7bc78090a52797db51e2cccd2589
10102738,1,2100074557965305098,正常天气,121.209878,39.161767,121.206424,39.157251,1580535238,1580535239,1580535264,1580537038,1580535959,8389e4d6012ea269c5e07a79db9c8bf7,5d157e1b946f7bd249e76f56f0db6be7
10102738,1,2100074559857657073,正常天气,121.208713,39.161234,121.208184,39.156941,1580535510,1580535511,1580535564,1580537490,1580536231,8389e4d6012ea269c5e07a79db9c8bf7,f1f7a7c96bf46e0dff3c878e0a85f9d5
10102738,2,2100074562394293325,正常天气,121.214258,39.164473,121.215734,39.160771,1580538125,1580538127,1580538144,1580541245,1580538276,d6ca3eb0e7f6d04009766756d309a3fe,9b6672ead086db7d4394a4e7f7f96686
10102738,2,2100074562709980306,正常天气,121.209823,39.155888,121.210024,39.157141,1580538541,1580538543,1580538564,1580541541,1580538704,4b2827d9fd12aeb49ad6bb56d5af239e,9bdb512d6371362e94340dbe2f68e4dc
10102738,3,2100074563488154890,正常天气,121.209878,39.161767,121.214194,39.155511,1580540119,1580540121,1580540124,1580541919,1580540781,b35eac63ece27fb5dfcaf8585f2b18d8,5d157e1b946f7bd249e76f56f0db6be7
10102738,3,2100074562885519016,正常天气,121.217127,39.155548,121.208444,39.174951,1580540266,1580540847,1580540904,1580544586,1580544447,916394d945b40963cb98c781418dec16,d095fe44d2253260c1683c2e7eb84135
10102738,3,2100074564394878632,正常天气,121.217127,39.155548,121.213494,39.172631,1580540611,1580541132,1580541144,1580544931,1580544732,46bb489f141592044bdab475bc006771,d095fe44d2253260c1683c2e7eb84135
10102738,4,2100074570347087499,正常天气,121.226094,39.153485,121.206224,39.156981,1580548814,1580548830,1580548884,1580551814,1580549730,8389e4d6012ea269c5e07a79db9c8bf7,5f952cbb649150cde5046e3e79812aa8
10102738,4,2100074570726114740,正常天气,121.221244,39.153083,121.211454,39.155711,1580549067,1580549075,1580549125,1580551827,1580550515,6a96276109bf51580b6f20b3067a13ae,138e8f05b53619f31c163707e444e52c
10102738,4,2100074570770810530,正常天气,121.226284,39.153001,121.214674,39.158111,1580549367,1580549368,1580549425,1580551647,1580550088,1a1e4358ab1279e7345a4bc8392d2d4b,0563e8083248662779a2ccf54eef661f
10102738,5,2100074574885619664,正常天气,121.20696,39.156653,121.214314,39.155951,1580551268,1580551270,1580551284,1580553188,1580552350,b35eac63ece27fb5dfcaf8585f2b18d8,54c20c6574d6677428f0c3b60dc825f7
10102738,5,2100074573734971344,正常天气,121.20696,39.156653,121.214354,39.155441,1580551788,1580551790,1580551824,1580554068,1580552870,b35eac63ece27fb5dfcaf8585f2b18d8,54c20c6574d6677428f0c3b60dc825f7
10102738,5,2100074577452107432,正常天气,121.217127,39.155548,121.210054,39.153041,1580552622,1580553202,1580553204,1580556942,1580556802,c949ce76c36b6b0fcee50a1e5746cb30,d095fe44d2253260c1683c2e7eb84135
101147106,1,2100074550299035396,正常天气,121.446515,39.190508,121.432074,39.178911,1580526706,1580527298,1580527308,1580531026,1580527606,4fcb9f726dae23971978c7bcf8a0efaf,b8725e3e8ad9dfa9803b6c0b796260c0
101147106,1,2100074550710470399,正常天气,121.433856,39.18815,121.437424,39.200821,1580527861,1580527864,1580527908,1580531881,1580529304,7f6f31889c58bf362ae067152cdb91ec,66ff0b5dbb060ef47f756d33cf170f97
101147106,1,2100074550744679783,正常天气,121.437211,39.187783,121.436304,39.188261,1580528074,1580528079,1580528089,1580530414,1580529339,5b607c31459cf4ef75ddaab7b06ed4b1,efcfb956cba62504383258664e352112
101147106,1,2100074552364762910,正常天气,121.433886,39.188024,121.433834,39.172371,1580530115,1580530116,1580530129,1580533655,1580531328,8e72e8d9cdb3cb8a64496e9594d7cc5c,c1e49d06e0693635825b1b268d46bb45
101147106,1,2100074552977065758,正常天气,121.433886,39.188024,121.429214,39.174201,1580530680,1580530681,1580530729,1580534040,1580531941,11cb717622c2afdf8c42e597ee74f40f,c1e49d06e0693635825b1b268d46bb45
101147106,1,2100074558132094311,正常天气,121.437211,39.187783,121.440804,39.184511,1580533551,1580533557,1580533608,1580535771,1580534337,92f31678a0bb59092bdadc2c45c01d71,efcfb956cba62504383258664e352112
101147106,1,2100074558806459575,正常天气,121.439461,39.185522,121.444154,39.186061,1580534081,1580534083,1580534088,1580536421,1580535283,c33e3d724834978aa4d87f0b671474bc,a4c03c50d85cdc68c978f7568eac681d
101147106,1,2100074559556290308,正常天气,121.446515,39.190508,121.450124,39.198891,1580535168,1580535757,1580535768,1580539488,1580539357,4bdb80ae86de7cac6041c7f3be1188ef,b8725e3e8ad9dfa9803b6c0b796260c0
101147106,1,2100074558515545181,正常天气,121.447285,39.186321,121.459404,39.206201,1580535232,1580535233,1580535348,1580538352,1580535953,f9af2360186ae54c143671845494b7b2,90a0bf873d3cf1adb51bd8997d78b1ab
101147106,2,2100074567219577867,正常天气,121.438581,39.185934,121.450384,39.175991,1580545985,1580546052,1580546088,1580548685,1580547065,5d6fbc6ecae678c03d5d6a9bef6a2ecb,cfea453d4df4103699141eac2b812384
101147106,2,2100074566623364786,正常天气,121.438472,39.185972,121.443864,39.178231,1580546297,1580546300,1580546328,1580548337,1580546900,48e993b545eeef8948d55ddc26059e05,f7c7af8dbe7f3beebf748d9e4ddf53de
101147106,2,2100074569446885029,正常天气,121.447789,39.186318,121.444114,39.186531,1580546955,1580547318,1580547348,1580550135,1580548395,d649f713fe0dba297f6edccd8cd3c9a0,0c697c665effdce94e7c4759cf18fc5c
101147106,2,2100074569220097451,正常天气,121.434214,39.188351,121.431214,39.198441,1580548145,1580548147,1580548189,1580550785,1580549047,00f4fc5c31a7b7c484b742cb24e2613c,68e5ebacfaab95124fb4d151b86d40ba
101147106,2,2100074571006772780,正常天气,121.438518,39.187498,121.434174,39.187661,1580548424,1580548426,1580548428,1580550584,1580549506,a5633ab819c919968470ae31a379f484,0a1dad32d19217558aa84c0a8e3e6164
101147106,3,2100074574500497182,正常天气,121.433886,39.188024,121.452954,39.180961,1580550638,1580550639,1580550649,1580554958,1580551899,6f7c67e2b7fe39ebb0dfb67445919f93,c1e49d06e0693635825b1b268d46bb45
101147106,3,2100074573926270311,正常天气,121.437211,39.187783,121.435744,39.187431,1580550853,1580550859,1580550888,1580552773,1580551639,e7f646a1a44a50a0da28b0f5d201c0dd,efcfb956cba62504383258664e352112
101147106,3,2100074574844724780,正常天气,121.438518,39.187498,121.453004,39.181321,1580551011,1580551013,1580551068,1580554371,1580552093,672e12eb870a27f3706d947c78b1c829,0a1dad32d19217558aa84c0a8e3e6164
101166018,0,2100074534726207223,正常天气,121.479636,39.072151,121.483444,39.056901,1580474311,1580474311,1580522560,1580525100,1580475811,a22733b050d37a0bd77983c830b05ac0,d760c12c2267518b380218058fe92751
101166018,0,2100074540299519735,正常天气,121.479636,39.072151,121.480424,39.055941,1580513645,1580514220,1580522741,1580525100,1580515720,0b8cc4119e2f861e1f48bf2f6f9738ce,d760c12c2267518b380218058fe92751
101166018,1,2100074547226936525,正常天气,121.48395,39.0646,121.484084,39.078991,1580526449,1580526452,1580526460,1580529149,1580527232,2b24ae367e7224510be843d2ea75536e,bb69771d5fde6210a7cba6038ae27691
101166018,1,2100074548505904333,正常天气,121.48395,39.0646,121.483934,39.067181,1580526589,1580526590,1580526641,1580529109,1580527670,f82f40fa05af8d09e3f54a5518530605,bb69771d5fde6210a7cba6038ae27691
101166018,1,2100074552232379800,正常天气,121.478006,39.071964,121.484334,39.082501,1580528365,1580528366,1580528381,1580530765,1580529266,455b73629807fb8b714f55cc992491d6,fd06d3c70d0f007e3159d88515e25b43
101166018,2,2100074552911594778,正常天气,121.479417,39.071826,121.495014,39.062921,1580529703,1580529709,1580529759,1580532283,1580530609,06fa0fc2d6e6687030dedba03746bab0,303a96836b23fb18dac582794be2bc26
101166018,2,2100074550551381920,正常天气,121.479197,39.072576,121.503134,39.054461,1580529893,1580529905,1580529940,1580533313,1580530805,51556eecdacd7709e79d08afb24989c6,fbaa325fa4ef64d4df244c72f813dc24
101166018,3,2100074559791072461,正常天气,121.48395,39.0646,121.475434,39.062751,1580534949,1580534950,1580534979,1580536869,1580536030,61fe605535ce48cab68ce6a4c6b42293,bb69771d5fde6210a7cba6038ae27691
101166018,3,2100074559020205912,正常天气,121.467935,39.064048,121.475104,39.067351,1580535791,1580535792,1580535820,1580538071,1580536692,27962fb43e7e2991fb6ac0940c232288,7d1c0e3d0162e59e24be6e02dbb78570
101166018,3,2100074558407378304,正常天气,121.472764,39.063927,121.479924,39.081661,1580536307,1580536307,1580536360,1580538587,1580537027,1154846763115129b2b8ee72e96bc5d5,6aee21311cc089bbbe5b64cd4ea7c531
101166018,5,2100074578000938189,正常天气,121.48395,39.0646,121.481114,39.063031,1580555742,1580555743,1580555799,1580557962,1580556823,f84b6822bedbc1bae635d4b450c895dd,bb69771d5fde6210a7cba6038ae27691
101166018,5,2100074577084155006,正常天气,121.483819,39.06463,121.479684,39.061751,1580556248,1580556248,1580556279,1580558048,1580557148,f84b6822bedbc1bae635d4b450c895dd,7b22b84bfcae98d151aca378c80c0ae9
10117471,0,2100074538424141573,正常天气,121.411481,39.179489,121.427784,39.184701,1580488463,1580489049,1580522614,1580525100,1580490549,d2cd3cb8e812bb8d9f5c38d6bce3db1b,5da049a9552fff778b091463df12fff5
10117471,0,2100074539048994305,正常天气,121.411664,39.185855,121.415094,39.173101,1580490335,1580490336,1580523034,1580525100,1580491836,7f27cd2e5bf005b55dcae57b5d49e943,68be0e7811e4d8f066b69a4163576850
10117471,0,2100074542751876869,正常天气,121.411481,39.179489,121.435434,39.172171,1580514317,1580514893,1580522674,1580525100,1580516393,f89f03c8def0e78ed76caaad8d57db89,5da049a9552fff778b091463df12fff5
10117471,0,2100074545755195286,正常天气,121.414902,39.187186,121.429234,39.174251,1580522231,1580522232,1580522734,1580525051,1580523132,11cb717622c2afdf8c42e597ee74f40f,eab57f1765d01e903aa78c05de0cf1b1
10117471,2,2100074550612723396,正常天气,121.410684,39.182581,121.417284,39.184591,1580527305,1580527357,1580527413,1580529816,1580528137,e58a56deca81a719235287ff1ef87b71,0257a20ba10f5213c51dd3863b6a38b9
10117471,2,2100074553271748102,正常天气,121.414323,39.186626,121.396754,39.176061,1580529535,1580529536,1580529573,1580533855,1580530256,a385d7d1e52d89d1a445faa37f5b5307,e2a70f54b42009a7ed9f1d18861c0e43
10117471,2,2100074553286198410,正常天气,121.416889,39.18365,121.411674,39.178401,1580529597,1580529598,1580529634,1580531697,1580530498,8a9237b41cf82238c7acfb3261d0d32c,622162fa514365fa3867ddce401378a7
10117471,2,2100074551526131201,正常天气,121.411664,39.185855,121.395044,39.180541,1580529855,1580529855,1580529874,1580532495,1580530335,c4f8a2db7f8704b0bdaa266d61ef48c3,68be0e7811e4d8f066b69a4163576850
10117471,2,2100074553371788801,正常天气,121.411664,39.185855,121.393604,39.179811,1580530119,1580530119,1580530174,1580533119,1580530659,c4f8a2db7f8704b0bdaa266d61ef48c3,68be0e7811e4d8f066b69a4163576850
10117471,3,2100074556338472782,正常天气,121.419881,39.185003,121.417994,39.175871,1580533564,1580533565,1580533594,1580536804,1580534825,f063fd8b7ee2923f376674abf3271e96,52609cbee4c8444396b944529cd0856d
10117471,3,2100074559440029518,正常天气,121.419881,39.185003,121.416374,39.170891,1580534514,1580534515,1580534554,1580537934,1580535775,5f6acc9499fdcd3f9f0138a79e5b1d6b,52609cbee4c8444396b944529cd0856d
10117471,4,2100074561140918094,正常天气,121.419881,39.185003,121.421934,39.192471,1580537442,1580537442,1580537493,1580540682,1580538882,b2cb405e40ad81c6a906336daa9db14d,52609cbee4c8444396b944529cd0856d
10117471,4,2100074562065860430,正常天气,121.419881,39.185003,121.413834,39.188211,1580537947,1580537948,1580537973,1580541067,1580539748,9b51a75a0f750ba340a0d76a55898712,52609cbee4c8444396b944529cd0856d
10117471,4,2100074562238907732,正常天气,121.421487,39.182198,121.434204,39.199921,1580539402,1580539404,1580539413,1580541742,1580540004,8e6f07789d7c41c79ce54653d67c61c8,bd4832810b03a6587b21290bf5df13a8
10117471,5,2100074567911311182,正常天气,121.419881,39.185003,121.418554,39.191371,1580547695,1580547695,1580547753,1580550815,1580548775,312ef5107a754692529e1432159ab198,52609cbee4c8444396b944529cd0856d
10117471,5,2100074571219371146,正常天气,121.416889,39.18365,121.421064,39.183751,1580547765,1580547766,1580547813,1580549925,1580548666,d89516cb976c61bfa80ee0113779e946,622162fa514365fa3867ddce401378a7
10117471,5,2100074571265311882,正常天气,121.416889,39.18365,121.418574,39.189511,1580548098,1580548098,1580548114,1580550378,1580548998,3668410c0ccb240cb552625d0239f654,622162fa514365fa3867ddce401378a7
10117471,5,2100074570662053002,正常天气,121.416889,39.18365,121.420714,39.193741,1580548141,1580548142,1580548173,1580550541,1580548922,c2adc77071061dc09f53207ee1ebb99a,622162fa514365fa3867ddce401378a7
10117471,6,2100074572423660660,正常天气,121.408419,39.190927,121.420494,39.182041,1580549747,1580549748,1580549794,1580552807,1580550708,6a4d5952d4c018a1c1af9fa590a10dda,1bc08a440a948c3cd9820fcbbe752804
10117471,6,2100074572984616310,正常天气,121.410468,39.181521,121.426554,39.182481,1580549983,1580549984,1580550034,1580552563,1580550884,2920ae49e32fda478e8fc8e1910135e6,bf1548936e03f3a1ac9d52a9cd3d0b15
10117471,6,2100074573234406538,正常天气,121.416889,39.18365,121.425404,39.183731,1580550113,1580550114,1580550153,1580552813,1580551014,51da85a3c3dfa1f360b48852b64218b2,622162fa514365fa3867ddce401378a7
10117471,6,2100074573387597140,正常天气,121.421487,39.182198,121.398164,39.181721,1580551618,1580551619,1580551654,1580554498,1580552279,a02adf637777588912367723ec13dbc6,bd4832810b03a6587b21290bf5df13a8
10117471,7,2100074566241781582,正常天气,121.419881,39.185003,121.417324,39.190191,1580545319,1580545319,1580557113,1580559300,1580546819,79ada5c4c37dc9922ec4153d9ce7cd65,52609cbee4c8444396b944529cd0856d
10117471,7,2100074577769039188,正常天气,121.421487,39.182198,121.418154,39.182861,1580556241,1580556243,1580556273,1580558281,1580556963,fcb4f15d71e4926696f06d3638bcde69,bd4832810b03a6587b21290bf5df13a8
10117471,7,2100074579568952458,正常天气,121.416889,39.18365,121.418834,39.192751,1580556836,1580556836,1580556873,1580558996,1580557736,03a79d6052d20268f4b4b5a89ad235f6,622162fa514365fa3867ddce401378a7
10117471,7,2100074578629592981,正常天气,121.421354,39.184668,121.417254,39.190311,1580557030,1580557033,1580557053,1580558830,1580557933,79ada5c4c37dc9922ec4153d9ce7cd65,c810399e7f49d260ebd208f8811461a4
10117471,8,2100074582490285569,正常天气,121.411664,39.185855,121.425364,39.189841,1580561403,1580561403,1580561433,1580564583,1580562363,5e15eaa29575208336584892dd687e34,68be0e7811e4d8f066b69a4163576850
10117471,8,2100074581251262358,正常天气,121.414902,39.187186,121.416274,39.189491,1580561723,1580561724,1580561733,1580564003,1580562624,19271b1628fda2248bf1a550fb159a83,eab57f1765d01e903aa78c05de0cf1b1
10117471,9,2100074581948597779,正常天气,121.431539,39.190148,121.423184,39.195291,1580564065,1580564067,1580564073,1580566345,1580564206,c04fb97b097d8814c6878902dc573e95,5d499dabd9455ab1aa949d3ab0365ba6
10117471,9,2100074583417881940,正常天气,121.421487,39.182198,121.438064,39.192471,1580564286,1580564287,1580564313,1580566446,1580565007,69436d4ae309d5078cc59b68964d9671,bd4832810b03a6587b21290bf5df13a8
101180274,0,2100074544789095987,正常天气,121.418914,39.084288,121.417314,39.083511,1580522000,1580522002,1580523824,1580526000,1580523502,42b40417b06b94b3740546427d2cd61a,88675cf223f4196632f7850321190678
101180274,0,2100074544335554004,正常天气,121.414378,39.075563,121.408494,39.103911,1580522872,1580522873,1580523104,1580525692,1580523473,ef76d55ec8773cee1f70038816a10750,88bdaf845436981cb85427a2643285c8
101180274,0,2100074543677506580,正常天气,121.405407,39.087494,121.414764,39.106481,1580524057,1580524058,1580524081,1580526877,1580524636,4659ccf82b20b6c1de7764d58f7a3868,c46d9d744b46b11b7473347bb7427377
101180274,0,2100074545939187491,正常天气,121.419242,39.083844,121.413064,39.105351,1580524353,1580524358,1580524364,1580528013,1580525318,4659ccf82b20b6c1de7764d58f7a3868,59e878168726103741569ce55466d5a3
101180274,0,2100074546485102359,正常天气,121.406936,39.08769,121.404304,39.109131,1580524775,1580524776,1580524799,1580527655,1580525676,0d22da4bd124d386f5546323c45bc924,c14b6f030103a8feb5ffa52a42a09289
101180274,0,2100074548029392663,正常天气,121.406936,39.08769,121.414034,39.101441,1580525167,1580525168,1580525204,1580528047,1580525547,1160453108d3e537255e9f7b931f4e90,c14b6f030103a8feb5ffa52a42a09289
101180274,1,2100074551923607392,正常天气,121.407188,39.075805,121.391754,39.067221,1580527604,1580528026,1580528084,1580530604,1580528864,e9747cfb07d2afce4d0ad82e5383bcca,a88b6ca13eb6f9b58c63428ab62f87e8
101180274,1,2100074549918565672,正常天气,121.397334,39.067492,121.394714,39.076961,1580529124,1580529125,1580529164,1580531524,1580529845,5a5a6fbed44c4d0e3f1ec5d6d0bed086,4cdcf2126144964ff9fb09f6188b5d92
101180274,1,2100074553583011032,正常天气,121.396674,39.074041,121.392694,39.065771,1580529628,1580529631,1580529644,1580531428,1580530531,c4daf81c352658df1bf5bea5b18f408b,542718c6dde901a86cc3658b28d693be
101180274,2,2100074562110752040,正常天气,121.397334,39.067492,121.396994,39.088441,1580538499,1580538500,1580538524,1580541079,1580539400,202303a4cec89d5693d1efc1dcf0f332,4cdcf2126144964ff9fb09f6188b5d92
101180274,2,2100074562716501477,正常天气,121.406731,39.084704,121.390144,39.083301,1580538757,1580538757,1580538868,1580540617,1580539357,870f6b58291258a0841998834af3b902,c98b69f54f846e203923c9c80e2bc56e
101180274,3,2100074552441668628,正常天气,121.405407,39.087494,121.411154,39.080931,1580530781,1580530782,1580542663,1580544900,1580542630,d299a3d742e0259179b5140e50b78c74,c46d9d744b46b11b7473347bb7427377
101180274,3,2100074564119987220,正常天气,121.405407,39.087494,121.410334,39.086031,1580540892,1580540893,1580543024,1580544900,1580542393,f7e2b2b75b04175610e5a00c1e221ebb,c46d9d744b46b11b7473347bb7427377
101180274,3,2100074565860721887,正常天气,121.40701,39.084737,121.388504,39.072381,1580544365,1580544378,1580544404,1580546645,1580545278,af6e450a715b3bada3e339c77eafebea,166b4ba28a018495a43ea8bd0c1f3bab
101180274,4,2100074572248909558,正常天气,121.405913,39.084288,121.412184,39.097081,1580548691,1580548692,1580548724,1580551151,1580549532,7cb16e85ec28d8c623cffaf469e0bca4,28f2111b3a730264497065e4a6c5f8bf
101180274,4,2100074571958257431,正常天气,121.406936,39.08769,121.428974,39.098741,1580548746,1580548748,1580548870,1580551986,1580549948,0523f1fc0daf952fd17e787fbee6b08c,c14b6f030103a8feb5ffa52a42a09289
101180274,5,2100074575208252933,正常天气,121.406177,39.074784,121.417434,39.071991,1580551369,1580551370,1580551424,1580553649,1580552210,4e732491d5c314a1bd962b85486ed186,b0ab98e1a8af6101638269273410edb0
101180274,5,2100074574588774133,正常天气,121.408885,39.090184,121.414634,39.079851,1580551416,1580551422,1580552432,1580555376,1580552682,29ebb2d22a33a9aec3e63aba6f79cdad,b8b90a1b2e5a530ce7eda23c7a5d8c5e
101180274,5,2100074573712951062,正常天气,121.414844,39.075591,121.414954,39.086261,1580551554,1580551555,1580552696,1580554435,1580552455,6f9625be8377ef98090466cf212e87f3,11cbd5b56abc1ad90580122b63590b1f
101180274,6,2100074577962370209,正常天气,121.422974,39.083081,121.413424,39.088301,1580555256,1580555256,1580555264,1580557776,1580556336,77f573d2652d89658a7f7952630fa1af,f91e21b25fd0453a23e4414c9be38dec
101180274,6,2100074578042881276,正常天气,121.417183,39.095882,121.432504,39.095241,1580556456,1580556456,1580556583,1580558736,1580557356,57a71786282fb6889ad0c243d8d57711,0557057493d59d8a7a5f3c91e5be3f9b
10120267,0,2100074547992364941,正常天气,121.427655,39.196978,121.402414,39.208871,1580524919,1580524921,1580524949,1580528519,1580526181,96ea64f3a1aa2fd00c72faacf0cb8ac9,9515aeb97d958c981eee79e6b065ae3c
10120267,0,2100074548685800768,正常天气,121.426574,39.198321,121.406884,39.212971,1580525946,1580525947,1580525969,1580528706,1580526847,2c25f1f0c29a21306c270748d5ad58a3,6d57f17736cae91ceab32a59c1eb1267
10120267,1,2100074565472618108,正常天气,121.429085,39.197715,121.453084,39.194301,1580541340,1580541908,1580541929,1580547040,1580545508,0f157ab791ac1432988362ca87ea9b21,406a47750b2960d4666f4dc63f704d9f
10120267,1,2100074565995103868,正常天气,121.429085,39.197715,121.451904,39.197621,1580541805,1580542392,1580542409,1580547205,1580545992,86e50587e1ba446bc427c687f8593606,406a47750b2960d4666f4dc63f704d9f
10120267,2,2100074570620732994,正常天气,121.427162,39.196771,121.423304,39.196111,1580547784,1580547785,1580547809,1580553064,1580550125,839ab46820b524afda05122893c2fe8e,fb270d5c345fc04dcf59c48c2d94aeb1
10120267,2,2100074576509535810,正常天气,121.427162,39.196771,121.415314,39.193301,1580552811,1580552812,1580552849,1580555151,1580553892,39e3f231e82983f629c42d1797ca9ec3,fb270d5c345fc04dcf59c48c2d94aeb1
101266154,0,2100074547891995727,正常天气,121.378224,39.12316,121.364324,39.119071,1580526483,1580526484,1580526525,1580529423,1580527504,b49ea77f54765027d8727e77097e8a97,633b1ec246689de0fb5abc198f09d67a
101266154,0,2100074549099038020,正常天气,121.378037,39.123166,121.362594,39.118781,1580526718,1580527080,1580527125,1580529778,1580528340,b49ea77f54765027d8727e77097e8a97,702b538be8296bf009067d1f13bb0075
101266154,1,2100074558026712568,正常天气,121.378464,39.123372,121.395414,39.117001,1580535699,1580535701,1580535705,1580538099,1580536781,0a051fd6115187ff12257e4d0841a875,886937d7f08614673b24e6bb23597c91
101266154,1,2100074558553883883,正常天气,121.378082,39.122922,121.382034,39.116791,1580535716,1580535722,1580535764,1580537516,1580536802,8699c7c99fd077df995c85cd8f1a4a82,8ebf3c54b4ea0b97109fdc6e2c85b7c1
101269810,0,2100074543554725167,正常天气,121.530764,39.115261,121.539824,39.116911,1580517957,1580521302,1580522023,1580524200,1580522802,10d94e59c8ab04d19d4f69a5455895be,44bb50eb807ec17188699e33a8159fd3
101269810,0,2100074547719735219,正常天气,121.526597,39.114749,121.535704,39.116111,1580525213,1580525214,1580525263,1580527433,1580526054,d4e45be05e57caa7fda1a17f6e8da11f,047a7a4404adc52f58b89a10b3dce7a0
101269810,1,2100074550419949123,正常天气,121.527241,39.117625,121.525664,39.118431,1580528594,1580528597,1580528623,1580530994,1580530037,a5fdb45f7092f908379fe59347065587,0dc1554f71a17c3faa0540da70836b1a
101269810,1,2100074552900879939,正常天气,121.527241,39.117625,121.506454,39.109261,1580529638,1580529642,1580529644,1580532638,1580531082,3db15d08ecb5d71ebc385057678dadc4,0dc1554f71a17c3faa0540da70836b1a
101269810,1,2100074555235436095,正常天气,121.511413,39.114118,121.507814,39.107001,1580531279,1580531285,1580531324,1580533259,1580532365,67e49d2bc18108862d3f00e119f8f736,6b644d24e01dbc9b6e770b3f44ae53be
101269810,1,2100074552535057460,正常天气,121.51262,39.109792,121.506944,39.105631,1580531720,1580531721,1580531744,1580534060,1580532621,95612735cb1fdfd09850157f4bf047c9,d707145b6d28e513e091a5913b882c15
101269810,2,2100074562606728383,正常天气,121.531144,39.116641,121.545494,39.102701,1580540832,1580540837,1580540863,1580543112,1580541557,ffd0499ff3c9ad0ee4f611c7b155e183,345232bf276e6e4799bc889effbdf413
101269810,2,2100074564434921303,正常天气,121.534088,39.091566,121.534564,39.097771,1580541580,1580541581,1580541583,1580544700,1580541671,c52dcd2dbaf6b8d54c57f7b30c331936,72f598e92a286d34266659db413ad4f0
101269810,3,2100074573592528257,正常天气,121.526872,39.117408,121.540394,39.111001,1580550449,1580550450,1580550463,1580553029,1580551710,90d29da52179c6b8ad712bfa0023e933,22a62c027ea5b3d5e9b15aecd41634aa
101269810,3,2100074574228259975,正常天气,121.525494,39.117958,121.535554,39.110711,1580550689,1580550690,1580550703,1580553209,1580551590,90d29da52179c6b8ad712bfa0023e933,f9eae2c953d93f591f9a681174ae6557
10127695,0,2100074530460927592,正常天气,121.590644,39.140041,121.563824,39.138501,1580468694,1580468714,1580520981,1580523300,1580470214,342234f4e2ee92021a182d7c6e555932,36f6d5b72b499e58f116e01fb1d63bd3
10127695,0,2100074531075819154,正常天气,121.595624,39.136981,121.563824,39.138501,1580469145,1580469158,1580520975,1580523300,1580470658,342234f4e2ee92021a182d7c6e555932,90dfc25655875166aa02dbc42bcac087
10127695,0,2100074543549679240,正常天气,121.582461,39.1402,121.588414,39.124611,1580520667,1580521253,1580521265,1580524987,1580522287,727fccfafaa74bd3c1c0cfa3d2caa7ce,2a8dfc80c24842a06eff02e16f42d435
10127695,0,2100074547215009095,正常天气,121.594353,39.13361,121.596884,39.132441,1580526346,1580526348,1580526545,1580529046,1580527668,40d096df6b8ecc15bd8cf38b7794308f,0ef5976981064f8f741097bd10186748
10127695,0,2100074549076526840,正常天气,121.601105,39.137024,121.569414,39.141941,1580526373,1580526968,1580527658,1580531773,1580530568,0fc0521f59b27d5529e8a0de38624ff6,8944ec8db309614c49fc787d3ba12f44
10127695,0,2100074549443200760,正常天气,121.601105,39.137024,121.573184,39.139011,1580526873,1580527461,1580527671,1580532273,1580531061,5c8b7e826091d33392a0fee062877edd,8944ec8db309614c49fc787d3ba12f44
10127695,0,2100074550743041554,正常天气,121.602047,39.137414,121.591964,39.138561,1580528067,1580528068,1580528105,1580530347,1580528668,46fd251db551077c4d2866a5add581ce,e33195f0bebdbbbfaa2860f2712cadf4
10127695,0,2100074552364205374,正常天气,121.576544,39.139641,121.582644,39.145721,1580530107,1580530108,1580530145,1580532507,1580531368,be53ee61104935234b174e62a07e53cf,1e6813483071d17547abf648bf5d4732
10127695,0,2100074553036735764,正常天气,121.576706,39.139621,121.589774,39.134951,1580531115,1580531116,1580531345,1580534115,1580532376,470d83a81cbe0ddfb9720cd7c8235204,60c840b612fefb50e7881310d4490fbb
10127695,1,2100074556276507817,正常天气,121.595654,39.13694,121.581384,39.133501,1580533162,1580533163,1580533205,1580535562,1580533883,6690d4ef7e811446ab30b0a481854a4b,5f4daff1c024a22c95d3e25df4be80dd
10127695,1,2100074558475601304,正常天气,121.587446,39.127015,121.591414,39.125111,1580533734,1580533745,1580533805,1580535714,1580534645,d036d1779ad0253480e9cb257b424d17,7575c025c3084fab439227dfb4640b9d
10127695,1,2100074557022734327,正常天气,121.590568,39.124236,121.585504,39.129001,1580534774,1580534775,1580534825,1580536754,1580535855,dbbae1e4779bb81fa2d0a927bd4908ef,e013bc7e4a573beebd1b0c23c29c4c4b
10127695,1,2100074557105276614,正常天气,121.585681,39.127166,121.569574,39.128741,1580535372,1580535380,1580535425,1580537592,1580536040,9d99021c4657f2445af32c1840033070,19cced2a48dbcd7bfcd7fc846cf04c6f
10127695,3,2100074562625505193,正常天气,121.575765,39.138991,121.577254,39.141251,1580541165,1580541165,1580541304,1580543985,1580542605,dba1f7f7c83a68f1262b3f5e36489fac,82055226870d3cdab492ea36813c9caa
10127695,3,2100074564453303756,正常天气,121.598421,39.140294,121.580774,39.131941,1580541845,1580541845,1580541904,1580545265,1580543645,eae8f94551266eee86c01763d35189c0,20d6233d863083613f2905b0ea80225d
10127695,3,2100074562926937618,正常天气,121.602047,39.137414,121.582174,39.132991,1580542141,1580542142,1580542145,1580544601,1580542742,6690d4ef7e811446ab30b0a481854a4b,e33195f0bebdbbbfaa2860f2712cadf4
10127695,3,2100074565496112658,正常天气,121.602047,39.137414,121.588484,39.129391,1580542201,1580542202,1580542205,1580544481,1580542802,f87f0c001e0265a9845a5d2870f82236,e33195f0bebdbbbfaa2860f2712cadf4
10127695,3,2100074565783160786,正常天气,121.584624,39.132524,121.588894,39.130591,1580543708,1580543709,1580543825,1580545988,1580544609,c6a01432c8138d46ba39957a8250e027,08fe1eef8dad814b6d11ea2fd98e452b
10127695,3,2100074567338001829,正常天气,121.58588,39.128463,121.570564,39.134911,1580543755,1580543760,1580544185,1580546515,1580544660,c5f5c23be1b71adb51ea9dc8e9d444a8,423e1cedbc4e632a9632d1211fdc216a
10127695,5,2100074578791728733,正常天气,121.592535,39.133069,121.590244,39.139951,1580554585,1580554606,1580554625,1580557165,1580555806,42412c6ce4e7fc04b94c7b391f839013,6c46da314110201df4949ba3fd46b445
10127695,5,2100074579183011016,正常天气,121.59097,39.137651,121.594604,39.141491,1580554855,1580555341,1580555345,1580556895,1580556115,3857aaba7f5d4ce9a8c4ca32a7e56440,e272112bb7eda47e2b30bdb34e0e3a49
10127695,5,2100074578928568056,正常天气,121.601105,39.137024,121.600354,39.118611,1580555721,1580556290,1580556304,1580561121,1580557341,4cccc5b61812d48eac86b38bd4e71b5e,8944ec8db309614c49fc787d3ba12f44
10135747,0,2100074547733989243,正常天气,121.531093,39.142603,121.539794,39.148411,1580525277,1580525278,1580525319,1580528878,1580526778,d76d338cda18deb03d536b6906d88e81,c6ac122ed917144fe45489c4644eb6f1
10135747,0,2100074545617635195,正常天气,121.531093,39.142603,121.546044,39.146761,1580525353,1580525353,1580525379,1580528953,1580526853,ad8222e53243dd2a7f9440278ca6a5f9,c6ac122ed917144fe45489c4644eb6f1
10135747,0,2100074548050823035,正常天气,121.531093,39.142603,121.544764,39.144611,1580525426,1580525426,1580525440,1580529026,1580526926,19ce4d0a68fb1f2064fb965ccf51be4e,c6ac122ed917144fe45489c4644eb6f1
10135747,0,2100074548984842222,正常天气,121.543864,39.149518,121.553004,39.160531,1580525940,1580525995,1580526039,1580528760,1580527423,be0ed157895e374776af74121a041516,38836cb02fb981f06af3998fb88ad6ef
10138087,0,2100074549168473724,正常天气,121.429085,39.197715,121.414684,39.196611,1580526911,1580527489,1580527529,1580532911,1580531089,00f712a9fc3d45467c4b1f8adbfbd3e3,406a47750b2960d4666f4dc63f704d9f
10138087,0,2100074550688319100,正常天气,121.429085,39.197715,121.421694,39.198451,1580527202,1580527788,1580527829,1580533202,1580531388,e503e0bea5a24b4085ca1dab7f9957fc,406a47750b2960d4666f4dc63f704d9f
10138087,0,2100074549587707487,正常天气,121.429082,39.198282,121.419634,39.198131,1580528382,1580528383,1580528429,1580530722,1580529223,ffdd0134ce45713fa5a34e8157a172fb,a7d11547fd7de4fe681e65ecd5daeca9
10138087,1,2100074558182164092,正常天气,121.429085,39.197715,121.443894,39.209541,1580533510,1580534091,1580534129,1580539510,1580537691,d4cc5a9029163d1494f6df18eae761b3,406a47750b2960d4666f4dc63f704d9f
10138087,1,2100074556723660337,正常天气,121.426639,39.19753,121.441374,39.209321,1580533935,1580533953,1580534009,1580536995,1580535213,644e1ba18aa8b67901d08ba83e18f570,5038fdaaa68cd9493d46667528ee1d7b
10138087,2,2100074559702075004,正常天气,121.429085,39.197715,121.413644,39.206551,1580537155,1580537698,1580537729,1580542555,1580539315,2305bc56115791c5b8360cead2062c5e,406a47750b2960d4666f4dc63f704d9f
10138087,2,2100074561188955772,正常天气,121.429085,39.197715,121.414824,39.197091,1580537524,1580538112,1580538149,1580542924,1580539684,00f712a9fc3d45467c4b1f8adbfbd3e3,406a47750b2960d4666f4dc63f704d9f
10138087,2,2100074560375817852,正常天气,121.429085,39.197715,121.414374,39.207531,1580537616,1580538207,1580538209,1580543016,1580539776,2305bc56115791c5b8360cead2062c5e,406a47750b2960d4666f4dc63f704d9f
10138087,3,2100074572982060668,正常天气,121.429085,39.197715,121.427024,39.184981,1580549669,1580549962,1580549968,1580555069,1580551829,94167b29da2c5b248d4173d0a7bc9ada,406a47750b2960d4666f4dc63f704d9f
10138087,3,2100074573274187072,正常天气,121.426574,39.198321,121.424914,39.184791,1580550591,1580550592,1580550629,1580553111,1580551312,e6712bbb56984b01a6a8141e7a2a45cd,6d57f17736cae91ceab32a59c1eb1267
101393874,0,2100074545888068875,正常天气,121.572474,39.150791,121.560454,39.144621,1580523711,1580523712,1580523729,1580525991,1580524612,7cac11e2f46ed46c339ec3d569853759,5a2bca8c4281c9b954796d126ca22602
101393874,0,2100074546431919689,正常天气,121.559167,39.143862,121.560104,39.153761,1580524384,1580524386,1580524509,1580527084,1580525586,cb953b45fa5a8c970520f1b9a8840041,9c1c3712a6b3df108815635ceab5556a
101393874,0,2100074545961306087,正常天气,121.554771,39.142991,121.558204,39.154151,1580524622,1580524623,1580524629,1580527022,1580525343,abe7e26b303875dcbd5d2203b4e81db2,76ab22040735d1b893b51f679e7ba359
101393874,0,2100074549328348494,正常天气,121.556005,39.14554,121.568424,39.143791,1580526479,1580526480,1580526489,1580528279,1580527200,d8f7ed07bc48fc5e4a330405aafc4697,63a92b913cde86439a931dc89b228c5b
101393874,1,2100074561325630608,正常天气,121.567252,39.15085,121.555144,39.138361,1580540014,1580540015,1580540205,1580542474,1580540795,ab2ccbb56ad120ab08115f51d45c0529,b0b5f7f5bdc689a45659b147b0a6fa1e
101393874,1,2100074564374824000,正常天气,121.566356,39.149935,121.548394,39.145671,1580540692,1580540693,1580540709,1580543692,1580541833,4670fa58c5d3942faf437a008b4cc934,adfe4aafa9da1cc27b7762cc082be000
101393874,2,2100074567124485205,正常天气,121.562751,39.140955,121.566594,39.143541,1580545003,1580545003,1580545029,1580547283,1580545723,dbb422937d7ff56e049d61da730b3e11,bd3bf245cbc2bd6f758bfb3275ab23e1
101393874,2,2100074566881019030,正常天气,121.563885,39.143192,121.573784,39.134001,1580545416,1580545417,1580545449,1580547696,1580546017,0141afc5868003d6a51a3cfef66f5520,0521206e3d0aa0985070eb72898d831c
101419538,0,2100074535470532145,正常天气,121.609981,39.136723,121.610664,39.146231,1580483892,1580483892,1580519424,1580521500,1580519464,70b16c114350931c2b7e1a8465a94c2c,ebad24f649ea7270ec549594161a197d
101419538,0,2100074541075039793,正常天气,121.609981,39.136723,121.629564,39.154411,1580488000,1580488000,1580520444,1580523300,1580519713,5c9e779fd1ac04cac7f012a6ea2cb3f0,ebad24f649ea7270ec549594161a197d
101419538,0,2100074543490762210,正常天气,121.614751,39.142274,121.623534,39.152531,1580519994,1580519995,1580520024,1580522574,1580520895,bf49288eb197bc6b44fa0573acf8c74d,b40b07a8997fe732670d31384489eccc
101419538,0,2100074543822177990,正常天气,121.612314,39.141275,121.627554,39.152411,1580520198,1580520211,1580520263,1580522838,1580520871,bf49288eb197bc6b44fa0573acf8c74d,dd9deb623b0cfa80183864e935a0f3bf
101419538,2,2100074558505879031,正常天气,121.618034,39.133931,121.607944,39.127801,1580533813,1580534424,1580534484,1580536993,1580535253,427956eae5d8bf0cda42593f3ac4d8fc,c48c1026b7ec54f47c6147858d3108e7
